{
    "maps": [
        {
            "id": 0,
            "name_store": "SCB Park Plaza",
            "type": "BKK",
            "province": "กรุงเทพฯ",
            "address": "เลขที่ 18 ไทยพาณิชย์ ปาร์ค พลาซ่า อาคารเวสต์ ยูนิต 2136 ชั้น 1 ถนนรัชดาภิเษก แขวงจตุจักร เขตจตุจักร กทม. 10900",
            "latitude": 13.8266438,
            "longitude": 100.5642468
        },
        {
            "id": 1,
            "name_store": "Future Park Rangsit",
            "type": "UPC",
            "province": "ปทุมธานี",
            "address": "เลขที่ 94 ศูนย์การค้าฟิวเจอร์พาร์ครังสิต ยูนิต จี 40-41 ชั้น จี ถนนพหลโยธิน ตำบลประชาธิปัตย์ อำเภอธัญบุรี  จ. ปทุมธานี  12130",
            "latitude": 13.9823051,
            "longitude": 100.6230644
        },
        {
            "id": 2,
            "name_store": "RGP Pattaya",
            "type": "UPC",
            "province": "ชลบุรี",
            "address": "เลขที่ 218 รอยัล การ์เด้น พลาซ่า\nยูนิต บี 60 หมู่ 10 ตำบลหนองปรือ  อำเภอบางละมุง\nจังหวัดชลบุรี  20260",
            "latitude": 12.9293064,
            "longitude": 100.8780717
        },
        {
            "id": 3,
            "name_store": "C.Rama 3",
            "type": "BKK",
            "province": "กรุงเทพฯ",
            "address": "เลขที่ 79 เซ็นทรัลพระราม 3 ห้อง 226-227  ชั้น 2 \nถนนสาธุประดิษฐ์  แขวงช่องนนทรี  เขตยานนาวา  \nกรุงเทพฯ 10120",
            "latitude": 13.6985474,
            "longitude": 100.5317352
        },
        {
            "id": 4,
            "name_store": "C.Bangna",
            "type": "BKK",
            "province": "กรุงเทพฯ",
            "address": "เลขที่ 587 ยูนิต 316 ชั้น3 เซ็นทรัล บางนา \nถนนบางนา-ตราด แขวงบางนา \nเขตบางนา กทม. 10260",
            "latitude": 13.664158,
            "longitude": 100.6373523
        },
        {
            "id": 5,
            "name_store": "Pacific Park Sriracha",
            "type": "UPC",
            "province": "ชลบุรี",
            "address": "เลขที่ 90 ศูนย์การค้า แปซิฟิคพาร์ค ยูนิต 116  ชั้น 1  \n90  ถ.สุขุมวิท   ต.ศรีราชา  อ.ศรีราชา\nจ.ชลบุรี  20110",
            "latitude": 13.1677801,
            "longitude": 100.9309466
        },
        {
            "id": 6,
            "name_store": "Surathani",
            "type": "UPC",
            "province": "จังหวัดสุราษฎร์ธานี",
            "address": "เลขที่ 9\/1 ชั้น 1 หมู่ที่ 3 ถนนเลี่ยงเมือง ตำบลมะขามเตี้ย อำเภอเมืองสุราษฎร์ธานี จังหวัดสุราษฎร์ธานี 84000  ",
            "latitude": 9.1021369,
            "longitude": 99.3032279
        },
        {
            "id": 7,
            "name_store": "Seiyu Sukhaphiban 3",
            "type": "BKK",
            "province": "กรุงเทพฯ",
            "address": "เลขที่ 7\/5 ยูนิต เอ 1-3  ชั้น 1  อาคารศูนย์เซยูสุขาภิบาล 3 เซ็นเตอร์ หมู่ 1  ถนนรามคำแหง    แขวงสะพานสูง       \nเขตสะพานสูง  กรุงเทพฯ 10240",
            "latitude": 13.7793993,
            "longitude": 100.6772676
        },
        {
            "id": 8,
            "name_store": "Silom II",
            "type": "BKK",
            "province": "กรุงเทพฯ",
            "address": "เลขที่ 60\/5-7 ถนนสีลม  แขวงสุริยวงศ์ เขตบางรัก กรุงเทพฯ  10500",
            "latitude": 13.7288809,
            "longitude": 100.5345835
        },
        {
            "id": 9,
            "name_store": "Chiang Rai",
            "type": "UPC",
            "province": "เชียงราย",
            "address": "เลขที่ 873\/7-8   ถนนพหลโยธิน  ตำบลเวียง อำเภอเมืองเชียงราย จังหวัดเชียงราย 57000",
            "latitude": 19.904691,
            "longitude": 99.8332173
        },
        {
            "id": 10,
            "name_store": "MBK 2",
            "type": "BKK",
            "province": "กรุงเทพฯ",
            "address": "เลขที่ 444 ห้องเลขที่ 2 บี-23 ถึง 2บี-26 ชั้น 2 มาบุญครอง ช็อปปิ้งเซ็นเตอร์ \n ถนนพญาไท แขวงวังใหม่  เขตปทุมวัน  กรุงเทพฯ 10330",
            "latitude": 13.7458938,
            "longitude": 100.5387944
        },
        {
            "id": 11,
            "name_store": "Hadyai 2",
            "type": "UPC",
            "province": "สงขลา",
            "address": "เลขที่ 29 ห้องเลขที่  บี 106-108  ลีการ์เด้น พลาซ่าโฮเต็ล \n ถนนประชาธิปัตย์  ตำบลหาดใหญ่  อำเภอหาดใหญ่  \nจังหวัดสงขลา  90110",
            "latitude": 7.0054409,
            "longitude": 100.471729
        },
        {
            "id": 12,
            "name_store": "Major Sukhumvit",
            "type": "BKK",
            "province": "กรุงเทพฯ",
            "address": "เลขที่ 1221\/39 ห้องเลขที่ 110-113 ชั้น G  อาคารศูนย์การค้าเมเจอร์ซินีเพล็กซ์ สุขุมวิท     \n ถนนสุขุมวิท แขวงคลองตันเหนือ  \nเขตวัฒนา   กรุงเทพฯ 10110",
            "latitude": 13.72147,
            "longitude": 100.583295
        },
        {
            "id": 13,
            "name_store": "Nakornprathom",
            "type": "UPC",
            "province": "นครปฐม",
            "address": "เลขที่ 754 ห้องเลขที่ 2 ซีอา214\/2 ชั้น 2  บิ๊กซีซุปเปอร์เซ็นเตอร์ ถนนเพชรเกษม ตำบลห้วยจรเข้ อำเภอเมืองนครปฐม  จังหวัดนครปฐม 73000",
            "latitude": 13.7068191,
            "longitude": 100.3811443
        },
        {
            "id": 14,
            "name_store": "Krabi",
            "type": "UPC",
            "province": "กระบี่",
            "address": "เลขที่ 76\/1  ชั้น G ห้างโวค สาขากระบี่  \nถนนมหาราช ตำบลปากน้ำ อำเภอเมือง \nจังหวัดกระบี่ 81000",
            "latitude": 8.064295699999999,
            "longitude": 98.91552329999999
        },
        {
            "id": 15,
            "name_store": "Mall Korat",
            "type": "UPC",
            "province": "นครราชสีมา",
            "address": "เลขที่ 1242\/2 ห้องเลขที่ 1 เอฟเอ็กซ์-01 ชั้น 1 เดอะมอลล์ นครราชสีมา \n ถนนมิตรภาพ  ตำบลในเมือง  อำเภอเมืองนครราชสีมา\nจังหวัดนครราชสีมา  30000",
            "latitude": 14.9806692,
            "longitude": 102.0764698
        },
        {
            "id": 16,
            "name_store": "Mall Bangkae",
            "type": "BKK",
            "province": "กรุงเทพฯ",
            "address": "เลขที่ 275 พื้นที่บางส่วนของ  GSC 15C 18 ชั้น G ศูนย์การค้าเดอะมอลล์บางแค หมู่ที่ 1 ถนนเพชรเกษม แขวงบางแคเหนือ เขตบางแค กรุงเทพฯ 10160",
            "latitude": 13.2750552,
            "longitude": 99.8174738
        },
        {
            "id": 17,
            "name_store": "Tesco Wanghin",
            "type": "BKK",
            "province": "กรุงเทพฯ",
            "address": "เลขที่ 561 ถนนลาดพร้าววังหิน  แขวงลาดพร้าว    \nเขตลาดพร้าว  กทม. 10230",
            "latitude": 13.8232394,
            "longitude": 100.5924209
        },
        {
            "id": 18,
            "name_store": "All Seasons Place",
            "type": "BKK",
            "province": "กรุงเทพฯ",
            "address": "เลขที่ 87\/2 ยูนิต 207 ชั้น 2 ออลซีซันส์เพลส รีเทลเซ็นเตอร์ ถนนวิทยุ  แขวงลุมพีนี   เขตปทุมวัน กรุงเทพฯ 10330",
            "latitude": 13.7390209,
            "longitude": 100.5483427
        },
        {
            "id": 19,
            "name_store": "Central RamaII",
            "type": "BKK",
            "province": "กรุงเทพฯ",
            "address": "เลขที่ 128 ยูนิต 137 ชั้น 1 เซ็นทรัล พลาซ่า พระราม 2 \n หมู่ 6 ถนนพระราม 2 แขวงแสมดำ \nเขตบางขุนเทียน กรุงเทพฯ 10150",
            "latitude": 13.6519841,
            "longitude": 100.4247086
        },
        {
            "id": 20,
            "name_store": "Big-C Pattaya ",
            "type": "UPC",
            "province": "ชลบุรี",
            "address": "เลขที่ 565\/41 ยูนิต 112 ชั้นจี บิ๊กซี ซุปเปอร์เซ็นเตอร์ พัทยา 2 หมู่ที่ 10 ตำบลหนองปรือ\nอำเภอบางละมุง จังหวัดชลบุรี 20150",
            "latitude": 12.9088801,
            "longitude": 100.907053
        },
        {
            "id": 21,
            "name_store": "Central Airporot Chiangmai",
            "type": "UPC",
            "province": "เชียงใหม่",
            "address": "เลขที่ 241 ชั้น 2 เซ็นทรัล แอร์พอร์ท พลาซ่า เชียงใหม่  \n2 ถนนมหิดล  ตำบลหายยา  อำเภอเมือง  \nจังหวัดเชียงใหม่  50100",
            "latitude": 18.7687488,
            "longitude": 98.9790778
        },
        {
            "id": 22,
            "name_store": "Big-C Nakornsawan",
            "type": "UPC",
            "province": "นครสวรรค์",
            "address": "เลขที่ 320\/11 ยูนิต 200-201 ชั้น 2 ศูนย์การค้าวี-สแควร์ พลาซ่า ถนนสวรรค์วิถีตําบลปากน้ําโพ อําเภอเมืองนครสวรรค์ จังหวัดนครสวรรค์  60000",
            "latitude": 15.6944427,
            "longitude": 100.1217422
        },
        {
            "id": 23,
            "name_store": "Fortune Town",
            "type": "BKK",
            "province": "กรุงเทพฯ",
            "address": "เลขที่ 5  ชั้น 1  ยูนิต 019-021 อาคารฟอร์จูน ทาวน์ ถนนรัชดาภิเษก แขวงดินแดง เขตดินแดง กทม. 10400 ",
            "latitude": 13.7594391,
            "longitude": 100.565267
        },
        {
            "id": 24,
            "name_store": "Imperial Ladprao",
            "type": "BKK",
            "province": "กรุงเทพฯ",
            "address": "เลขที่ 2539 ยูนิต AF-2 บางส่วน ชั้น 1 อิมพิเรียล เวิลด์ลาดพร้าว \n ถนนลาดพร้าว แขวงวังทองหลาง \nเขตวังทองหลาง กรุงเทพฯ 10310 ",
            "latitude": 13.7886913,
            "longitude": 100.614114
        },
        {
            "id": 25,
            "name_store": "Jasmin City",
            "type": "BKK",
            "province": "กรุงเทพฯ",
            "address": "เลขที่ 2  ยูนิต เอส 107 ชั้น G อาคารจัสมินซิตี้ \nซอยประสานมิตร  ถนนสุขุมวิท   \nแขวงคลองเตยเหนือ เขตวัฒนา  กรุงเทพฯ 10110",
            "latitude": 13.7358556,
            "longitude": 100.5630025
        },
        {
            "id": 26,
            "name_store": "Lotus Phuket",
            "type": "UPC",
            "province": "ภูเก็ต",
            "address": "เลขที่ 104  ชั้น จี  หมู่ที่ 5  ถนนเฉลิมพระเกียรติ ร.9  ตำบลรัษฎา อำเภอเมืองภูเก็ต จังหวัดภูเก็ต 83000",
            "latitude": 7.929257199999999,
            "longitude": 98.3740366
        },
        {
            "id": 27,
            "name_store": "Thonglor soi 15",
            "type": "BKK",
            "province": "กรุงเทพฯ",
            "address": "เลขที่ 323 ยูนิต JAV01LS108  อาคารเจ อเวนิว  ชั้น 1 ,  ซอยสุขุมวิท 55 แขวงคลองตันเหนือ เขตวัฒนา กรุงเทพฯ 10110",
            "latitude": 13.724692,
            "longitude": 100.5789532
        },
        {
            "id": 28,
            "name_store": "Mall Ram",
            "type": "BKK",
            "province": "กรุงเทพฯ",
            "address": "เลขที่ 1909 ชั้น จี  เดอะมอลล์ รามคำแหง   \n ถนนรามคำแหง   แขวงหัวหมาก   \nเขตบางกะปิ   กรุงเทพฯ  10240",
            "latitude": 13.7526012,
            "longitude": 100.6096231
        },
        {
            "id": 29,
            "name_store": "Big C Hadyai 2 ",
            "type": "UPC",
            "province": "สงขลา",
            "address": "เลขที่ 677 ยูนิต F2\/12-13  ชั้น 2 ศูนย์การค้าบิ๊กซี หาดใหญ่2 \nถนนเพชรเกษม ตำบลหาดใหญ่  อำเภอหาดใหญ่ \nจังหวัดสงขลา 90110",
            "latitude": 7.0198613,
            "longitude": 100.4854047
        },
        {
            "id": 30,
            "name_store": "Big C Aomyai",
            "type": "UPC",
            "province": "นครปฐม",
            "address": "เลขที่ 17\/17 ยูนิต 116  ชั้น 1  บิ๊กซี เซ็นเตอร์ สาขาอ้อมใหญ่   หมู่ 8  ตำบลอ้อมใหญ่ อำเภอสามพราน  จังหวัดนครปฐม 73160",
            "latitude": 13.694338,
            "longitude": 100.265844
        },
        {
            "id": 31,
            "name_store": "Ploenjit Center",
            "type": "BKK",
            "province": "กรุงเทพฯ",
            "address": "เลขที่ 2 ยูนิค 21-22 ชั้น G เพลินจิตเซ็นเตอร์ ถนนสุขุมวิท แขวงคลองเตย เขตคลองเตย กทม 10110",
            "latitude": 13.741573,
            "longitude": 100.5514156
        },
        {
            "id": 32,
            "name_store": "Central Rattanatibet",
            "type": "UPC",
            "province": "นนทบุรี",
            "address": "เลขที่  562 เซ็นทรัลรัตนาธิเบศร์ ห้องเลขที่  ยูนิต 222 ชั้น 2  หมู่ 8 ถนนรัตนาธิเบศร์ ตำบลบางกระสอ  อ.เมืองนนทบุรี จังหวัดนนทบุรี 11000",
            "latitude": 13.8700825,
            "longitude": 100.4680194
        },
        {
            "id": 33,
            "name_store": "Century Movie Plaza",
            "type": "BKK",
            "province": "กรุงเทพฯ",
            "address": "เลขที่ 15 ยูนิต 201\/3, ชั้น 2, เซ็นจูรี่เดอะมูวี่พลาซ่า, \nถนนพญาไท แขวงพญาไท  เขตราชเทวี กรุงเทพฯ 10400",
            "latitude": 13.761585,
            "longitude": 100.5370939
        },
        {
            "id": 34,
            "name_store": "Siam Paragon",
            "type": "BKK",
            "province": "กรุงเทพฯ",
            "address": "เลขที่ 991 ยูนิต 225, ชั้น 2, ศูนย์การค้าสยามพารากอน ถนนพระราม1, แขวงปทุมวัน,          \nเขตปทุมวัน, กรุงเทพฯ 10330",
            "latitude": 13.7462411,
            "longitude": 100.5347402
        },
        {
            "id": 35,
            "name_store": "Big C Rama 4",
            "type": "BKK",
            "province": "กรุงเทพฯ",
            "address": "เลขที่ 2929 ยูนิต เอฟ 1\/21 ชั้น1 ศูนย์การค้าบิ๊กซี พระราม 4\nถนนพระรามสี่ แขวงคลองตัน เขตคลองเตย \nกทม. 10110",
            "latitude": 13.7188746,
            "longitude": 100.5690464
        },
        {
            "id": 36,
            "name_store": "Hua Hin 2 (Market Villa)",
            "type": "UPC",
            "province": "ประจวบคีรีขันธ์",
            "address": "เลขที่ 234\/1 ยูนิต เอส 123 , ชั้น จี, โครงการหัวหินมาร์เก็ตวิลเลจ, ถนนเพชรเกษม ตำบลหัวหิน อำเภอหัวหิน จังหวัดประจวบคีรีขันธ์ 77110",
            "latitude": 12.5577654,
            "longitude": 99.9605558
        },
        {
            "id": 37,
            "name_store": "Chongnonsri",
            "type": "BKK",
            "province": "กรุงเทพฯ",
            "address": "เลขที่ 100\/71 (บางส่วน) ชั้น1  อาคาร สาธรนครทาวเวอร์ \nถนนสาทรเหนือ แขวงสีลม เขตบางรัก กรุงเทพฯ 10500",
            "latitude": 13.7267048,
            "longitude": 100.5206252
        },
        {
            "id": 38,
            "name_store": "Q House Lumpinee",
            "type": "BKK",
            "province": "กรุงเทพฯ",
            "address": "เลขที่ 1 ยูนิต จี 06-07, ชั้น จี อาคารคิวเฮาท์ ลุมพินี  \n ถนนสาทรใต้ แขวงทุ่งมหาเมฆ เขตสาทร \nกรุงเทพ 10120",
            "latitude": 13.7249411,
            "longitude": 100.543851
        },
        {
            "id": 39,
            "name_store": "Tesco  Ban fah",
            "type": "UPC",
            "province": "ปทุมธานี",
            "address": "เลขที่ 75 ชั้น 1 หมู่ที่ 5 ตำบลบึงคำพร้อย อำเภอลำลูกกา จังหวัดปทุมธานี 12150",
            "latitude": 13.9287809,
            "longitude": 100.7210317
        },
        {
            "id": 40,
            "name_store": "Exchange Tower",
            "type": "BKK",
            "province": "กรุงเทพฯ",
            "address": "เลขที่ 388 เอ็กซ์เชน ทาวเวอร์ ชั้นจี ยูนิต 08-09 ถนนสุขุมวิท  แขวงคลองเตย  เขตคลองเตย กรุงเทพฯ 10110",
            "latitude": 13.7347323,
            "longitude": 100.5635595
        },
        {
            "id": 41,
            "name_store": "La Villa Phahoyothin",
            "type": "BKK",
            "province": "กรุงเทพฯ",
            "address": " เลขที่ 358 ห้องเลขที่ LAV02LS106 ชั้น 1 โครงการลา วิลล่า ถนนพหลโยธิน แขวงสามเสนใน เขตพญาไท กรุงเทพมหานคร 10400",
            "latitude": 13.78002,
            "longitude": 100.54478
        },
        {
            "id": 42,
            "name_store": "Silom 3",
            "type": "BKK",
            "province": "กรุงเทพฯ",
            "address": "เลขที่ 116\/1 ปากซอยพัฒน์พงษ์ 2 ถนนสีลม แขวงสุริยวงศ์    \nเขตบางรัก กรุงเทพฯ 10500",
            "latitude": 13.7290351,
            "longitude": 100.5321093
        },
        {
            "id": 43,
            "name_store": "Tapae Gate Chiangmai",
            "type": "UPC",
            "province": "เชียงใหม่",
            "address": "404\/4,408,410 ถนนท่าแพ ตำบลช้างม่อย อำเภอเมืองเชียงใหม่\nจังหวัดเชียงใหม่ 50300",
            "latitude": 18.7880346,
            "longitude": 98.99416629999999
        },
        {
            "id": 44,
            "name_store": "Esplanade",
            "type": "BKK",
            "province": "กรุงเทพฯ",
            "address": "เลขที่ 99 ยูนิต เอ็ม24-25,ชั้นเมซซะนีน เอสพานาต รัชดา ถนนรัชดาภิเภษ แขวงดินแดง เขตดินแดง กรุงเทพฯ 10320",
            "latitude": 13.7199928,
            "longitude": 100.5398252
        },
        {
            "id": 45,
            "name_store": "Robinson Phuket",
            "type": "UPC",
            "province": "ภูเก็ต",
            "address": "เลขที่ 36 ชั้น 1 โรบินสัน ภูเก็ต ถนนตลกอุทิศ 1 ตำบลตลาดใหญ่\n อำเภอเมือง จังหวัดภูเก็ต 83000",
            "latitude": 7.8775748,
            "longitude": 98.3943024
        },
        {
            "id": 46,
            "name_store": "Big C Chonburi 2",
            "type": "UPC",
            "province": "ชลบุรี",
            "address": "เลขที่15\/17 ยูนิต เอฟ 1\/9-10ศูนย์การค้าบิ๊กซี ชลบุรี 2 หมู่ที่ 3 ตำบลห้วยกะปิ อำเภอเมืองชลบุรี จังหวัดชลบุรี 20000",
            "latitude": 13.3157863,
            "longitude": 100.9603981
        },
        {
            "id": 47,
            "name_store": "Tesco Rangsit",
            "type": "UPC",
            "province": "ปทุมธานี",
            "address": "เลขที่ 801  ชั้น 1  ถนนพหลโยธิน ตำบลประชาธิปัตย์\n อำเภอธัญบุรี จังหวัดปทุมธานี 12130",
            "latitude": 13.9879712,
            "longitude": 100.61574
        },
        {
            "id": 48,
            "name_store": "Tesco Nongkai",
            "type": "UPC",
            "province": "หนองคาย",
            "address": "เลขที่ 304 ห้องเลขที่ เอ-21 ชั้น 1 \n หมู่ที่ 10 ถนนมิตรภาพ \nตำบลโพธิ์ชัย อำเภอเมืองหนองคาย จังหวัดหนองคาย 43000",
            "latitude": 17.8686023,
            "longitude": 102.7277665
        },
        {
            "id": 49,
            "name_store": "The Avenue Pattaya",
            "type": "UPC",
            "province": "ชลบุรี",
            "address": "เลขที่ 399\/9 อาคารดิ อเวนิว พัทยา ห้องเลขที่  บี 101 ชั้น 1ตำบลหนองปรือ อำเภอบางละมุง จังหวัดชลบุรี  20150",
            "latitude": 12.9230319,
            "longitude": 100.9113405
        },
        {
            "id": 50,
            "name_store": "Big C Samui",
            "type": "UPC",
            "province": "จังหวัดสุราษฎร์ธานี",
            "address": "เลขที่ 129\/19  บิ๊กซี สมุยห้องเลขที่ GCR 113 ชั้น 1  \n หมู่ 1 ตำบลบ่อผุด อำเภอเกาะสมุย  \nจังหวัดสุราษฎร์ธานี  84320",
            "latitude": 9.5344753,
            "longitude": 100.0677231
        },
        {
            "id": 51,
            "name_store": "MBK 3",
            "type": "BKK",
            "province": "กรุงเทพฯ",
            "address": "เลขที่ 444 เอ็ม บี เค เซ็นเตอร์  ห้องเลขที่ 3B16 ชั้น 3   ถนนพญาไท แขวงวังใหม่ \nเขตปทุมวัน กรุงเทพฯ 10330",
            "latitude": 13.7470904,
            "longitude": 100.5306824
        },
        {
            "id": 52,
            "name_store": "Times Sq.",
            "type": "BKK",
            "province": "กรุงเทพฯ",
            "address": "เลขที่ 246  อาคาร ไทมส์ สแควร์  ยูนิต 107,  ชั้น 1    \nถนนสุขุมวิท (ซ.12 - ซ.14) แขวงคลองเตย  \nเขตคลองเตย  กรุงเทพฯ 10110",
            "latitude": 13.7190049,
            "longitude": 100.5854661
        },
        {
            "id": 53,
            "name_store": "Mall Thapra",
            "type": "BKK",
            "province": "กรุงเทพฯ",
            "address": "เลขที่ 129 เดอะมอลล์ท่าพระ ห้องเลขที่ B05,B06 ชั้น B ถนนรัชดาภิเษก(ท่าพระ-ตากสิน) แขวงบุคคโล เขตธนบุรี    กรุงเทพฯ  10600",
            "latitude": 13.7702753,
            "longitude": 100.5724323
        },
        {
            "id": 54,
            "name_store": "Big C Hangdong",
            "type": "UPC",
            "province": "เชียงใหม่",
            "address": "เลขที่ 433\/4  บิ๊กซี หางดง ห้องเลขที่ GCR 125 ชั้น 1  \n หมู่ที่ 7 ตำบลแม่เหียะ อำเภอเมืองเชียงใหม่ \nเชียงใหม่ 50000",
            "latitude": 18.7436597,
            "longitude": 98.9617528
        },
        {
            "id": 55,
            "name_store": "Silom Complex",
            "type": "BKK",
            "province": "กรุงเทพฯ",
            "address": "เลขที่ 191 ศูนย์การค้าสีลมคอมเพล็กซ์ ห้องเลขที่ 205 ชั้น 2  ถนนสีลม แขวงสีลม เขตบางรัก กรุงเทพฯ 10500",
            "latitude": 13.7257918,
            "longitude": 100.5267936
        },
        {
            "id": 56,
            "name_store": "The Crystal",
            "type": "BKK",
            "province": "กรุงเทพฯ",
            "address": "เลขที่ 64\/99 เดอะ คริสตัล ห้องเลขที่  116-117 ชั้น 1 หมู่ 6 ถนนประดิษฐ์มนูธรรม แขวงลาดพร้าว เขตลาดพร้าว กรุงเทพฯ 10230",
            "latitude": 13.8315569,
            "longitude": 100.6303409
        },
        {
            "id": 57,
            "name_store": "Siam Paragon 2",
            "type": "BKK",
            "province": "กรุงเทพฯ",
            "address": "เลขที่ 991 พื้นที่บางส่วนแผนก Food Hall ชั้น จี ศูนย์การค้าสยามพารากอน ถนนพระราม 1 แขวงปทุมวัน เขตปทุมวัน กรุงเทพมหานคร    10330",
            "latitude": 13.7462411,
            "longitude": 100.5347402
        },
        {
            "id": 58,
            "name_store": "Big C Ubon ",
            "type": "UPC",
            "province": "อุบลราชธานี",
            "address": "เลขที่ 92  บิ๊กซี อุบลราชธานี ห้องเลขที่ GCR 01\/1บี    GCR011\/2 ชั้นที่ 1  ซอยธรรมวิถี 4 ถนนธรรมวิถี ตำบลในเมือง อำเภอเมืองอุบลราชธานี\n จังหวัดอุบลราชธานี 34000",
            "latitude": 15.2679076,
            "longitude": 104.8390102
        },
        {
            "id": 59,
            "name_store": "SF Ratchayotih",
            "type": "BKK",
            "province": "กรุงเทพฯ",
            "address": "เลขที่ 234\/2 ศูนย์การค้าอเวนิว รัชโยธิน ห้องเลขที่ บี 105 ชั้น 1 ถนนรัชดาภิเษก แขวงลาดยาว เขตจตุจักร กรุงเทพฯ 10900 ",
            "latitude": 13.8301565,
            "longitude": 100.5612119
        },
        {
            "id": 60,
            "name_store": "Chamchuree Square",
            "type": "BKK",
            "province": "กรุงเทพฯ",
            "address": "เลขที่ 319 ห้องเลขที่  131 ชั้น จี โครงการจัตุรัสจามจุรี \n แขวงปทุมวัน เขตปทุมวัน \nกรุงเทพฯ 10330",
            "latitude": 13.733324,
            "longitude": 100.5304385
        },
        {
            "id": 61,
            "name_store": "Big C Phuket ",
            "type": "UPC",
            "province": "ภูเก็ต",
            "address": "\nเลขที่ 72  ห้องเลขที่  จีซีอาร์ 007, บิ๊กซี ภูเก็ต \n หมู่ที่ 5 ตำบลวิชิต อำเภอเมืองภูเก็ต \nจังหวัดภูเก็ต 83000\n",
            "latitude": 7.895999999999999,
            "longitude": 98.3673958
        },
        {
            "id": 62,
            "name_store": "Central Cheangwattana",
            "type": "UPC",
            "province": "นนทบุรี",
            "address": "เลขที่ 99 หมู่ 2 ห้องเลขที่ 304-305 ชั้น 3 ศูนย์การค้าเซ็นทรัล แจ้งวัฒนะ \nตำบลบางตลาด \nอำเภอปากเกร็ด จังหวัดนนทบุรี 11120",
            "latitude": 13.9090409,
            "longitude": 100.5498148
        },
        {
            "id": 63,
            "name_store": "Tesco Srinakarin",
            "type": "UPC",
            "province": "สมุทรปราการ",
            "address": "เลขที่ 9 หมู่ 6  ชั้น 1 \nตำบลบางเมืองใหม่ \nอำเภอเมืองสมุทรปราการ จังหวัดสมุทรปราการ 10270",
            "latitude": 13.6213068,
            "longitude": 100.6073246
        },
        {
            "id": 64,
            "name_store": "Central Pattaya Beach ",
            "type": "UPC",
            "province": "ชลบุรี",
            "address": "เลขที่ 333\/99 หมู่ 9 ยูนิต 324-325 ชั้น 3 ศูนย์การค้าเซ็นทรัลเฟสติวัล พัทยา บีช\n ตำบลหนองปรือ\nอำเภอบางละมุง จังหวัดชลบุรี 20260",
            "latitude": 12.9340776,
            "longitude": 100.8841869
        },
        {
            "id": 65,
            "name_store": "Homepro Phuket ",
            "type": "UPC",
            "province": "ชลบุรี",
            "address": "เลขที่ 333\/99 หมู่ 9 ยูนิต 324-325 ชั้น 3 ศูนย์การค้าเซ็นทรัลเฟสติวัล พัทยา บีช\n ตำบลหนองปรือ\nอำเภอบางละมุง จังหวัดชลบุรี 20260",
            "latitude": 12.9340776,
            "longitude": 100.8841869
        },
        {
            "id": 66,
            "name_store": "Central Chonburi",
            "type": "UPC",
            "province": "ชลบุรี",
            "address": "เลขที่ 55\/88-55\/89 หมู่ที 1 ห้องเลขที่ 220 ชั้น 2 อาคารเซ็นทรัล พลาซ่า ชลบุรี  \nอำเภอเมืองชลบุรี  จังหวัดชลบุรี  20000",
            "latitude": 13.3357539,
            "longitude": 100.9702515
        },
        {
            "id": 67,
            "name_store": "Nawamin City Avenue",
            "type": "BKK",
            "province": "กรุงเทพฯ",
            "address": "เลขที่ 291 ห้องเลขที่ บี102 ชั้น จี อาคารนวมินทร์ซิตี้ อเวนิว ถนนประเสริฐมนูกิจ แขวงจรเข้บัว เขตลาดพร้าว กรุงเทพมหานคร   10230 ",
            "latitude": 13.8342215,
            "longitude": 100.6108772
        },
        {
            "id": 68,
            "name_store": "Fashion Island 2",
            "type": "BKK",
            "province": "กรุงเทพฯ",
            "address": "เลขที่ 587, 589  ห้องเลขที่ 2039 เอ-บี ชั้น 2 อาคารศูนย์การค้าแฟชั่นไอส์แลนด์\nถนนรามอินทรา  แขวงคันนายาว \nเขตคันนายาว กรุงเทพฯ 10230",
            "latitude": 13.826403,
            "longitude": 100.6789691
        },
        {
            "id": 69,
            "name_store": "Central Plaza Khonkaen",
            "type": "UPC",
            "province": "ขอนแก่น",
            "address": "เลขที่ 99 ศูนย์การค้าเซ็นทรัล พลาซ่าขอนแก่น             ห้องเลขที่  222 ชั้น 2 \nถนนศรีจันทร์ ตำบลในเมือง \nอำเภอเมืองขอนแก่น จังหวัดขอนแก่น 40000\n ",
            "latitude": 16.4290583,
            "longitude": 102.8455646
        },
        {
            "id": 70,
            "name_store": "Esplanade Rattanatibet ",
            "type": "UPC",
            "province": "นนทบุรี",
            "address": "เลขที่ 56 ยูนิต LG-07 ชั้น จี ศูนย์การค้าเอสพลานาด รัตนาธิเบศร์ ถนนรัตนาธิเบศร์ ตำบลบางกระสอ อำเภอเมืองนนทบุรี จังหวัดนนทบุรี 11000",
            "latitude": 13.8604977,
            "longitude": 100.5186055
        },
        {
            "id": 71,
            "name_store": "Energy Complex",
            "type": "BKK",
            "province": "กรุงเทพฯ",
            "address": "เลขที่ 555\/3 ยูนิต C-0314-15,  ชั้น 3 \nอาคารบริการศูนย์ เอนเนอร์ยี คอมเพล็กซ์\nถนนวิภาวดีรังสิต แขวงจตุจักร เขตจตุจักร \nกรุงเทพฯ  10900",
            "latitude": 13.8194182,
            "longitude": 100.5569869
        },
        {
            "id": 72,
            "name_store": "K Village",
            "type": "BKK",
            "province": "กรุงเทพฯ",
            "address": "เลขที่ 93,95 ยูนิต A102 ชั้น 1 โครงการ เค วิลเลจ \n  ซอยสุขุมวิท 26  ถนนสุขุมวิท  \nแขวงคลองตัน  เขตคลองเตย  กรุงเทพฯ 10110",
            "latitude": 13.7225,
            "longitude": 100.5693112
        },
        {
            "id": 73,
            "name_store": "Interchange  ",
            "type": "BKK",
            "province": "กรุงเทพฯ",
            "address": "เลขที่ 399 ห้องเลขที่ 301-302 ชั้น 3 อาคารอินเตอร์เชนจ \n ถนนสุขุมวิท แขวงคลองเตยเหนือ \nเขตวัฒนา กรุงเทพมหานคร 10110",
            "latitude": 13.736551,
            "longitude": 100.5616845
        },
        {
            "id": 74,
            "name_store": "Paradise Park",
            "type": "BKK",
            "province": "กรุงเทพฯ",
            "address": "เลขที่ 61 ยูนิต PDP.F0G.CS007\/00- PDP.F0G.CS008\/00 ชั้นจี     ศูนย์การค้าพาราไดซ์ พาร์ค ถนนศรีนครินทร์ แขวงหนองบอน เขตประเวศกรุงเทพมหานคร. 10250",
            "latitude": 13.6875903,
            "longitude": 100.647631
        },
        {
            "id": 75,
            "name_store": "Chengtalay ",
            "type": "UPC",
            "province": "ภูเก็ต",
            "address": "เลขที่ 474 ชั้น 1 \n ถนนศรีสุนทร ตำบลเชิงทะเล อำเภอถลาง \nจังหวัดภูเก็ต 83110",
            "latitude": 7.988407100000001,
            "longitude": 98.3114933
        },
        {
            "id": 76,
            "name_store": "Tesco Lotus Laksi ",
            "type": "BKK",
            "province": "กรุงเทพฯ",
            "address": " เลขที่ 52 ยูนิต 023PG021 ชั้น 1 แขวงอนุสาวรีย์ เขตบางเขน กรุงเทพฯ 10220",
            "latitude": 13.8785245,
            "longitude": 100.5984069
        },
        {
            "id": 77,
            "name_store": "Seacon Square-2",
            "type": "BKK",
            "province": "กรุงเทพฯ",
            "address": "เลขที่ 55 ยูนิต 2051 ชั้น2 ซีคอนสแควร์ \n ถนนศรีนครินทร์ แขวงหนองบอน เขตประเวศ กรุงเทพฯ 10260",
            "latitude": 13.6943348,
            "longitude": 100.6483001
        },
        {
            "id": 78,
            "name_store": "RSU Tower",
            "type": "BKK",
            "province": "กรุงเทพฯ",
            "address": "เลขที่ 571  ยูนิต จี07 ชั้น จี อาคารอาร์เอสยู ทาวเวอร์ ถนนสุขุมวิท แขวงคลองตันเหนือ เขตวัฒนา กรุงเทพฯ 10110",
            "latitude": 13.733321,
            "longitude": 100.5663272
        },
        {
            "id": 79,
            "name_store": "Supreme Samsen ",
            "type": "BKK",
            "province": "กรุงเทพฯ",
            "address": "เลขที่ 1024 ยูนิต เอล111 ชั้น1 ศูนย์การค้าสุพรีม สามเสน \n ถนนสามเสน แขวงถนนนครไชยศรี \nเขตดุสิต กรุงเทพฯ 10300",
            "latitude": 13.7896742,
            "longitude": 100.5153014
        },
        {
            "id": 80,
            "name_store": "Sun Tower",
            "type": "BKK",
            "province": "กรุงเทพฯ",
            "address": "เลขที่ 123 ยูนิต A-111, ชั้น G  อาคาร ซันทาวเวอร์ส เอ, ถนนวิภาวดีรังสิต แขวงจอมพล เขตจตุจักร กรุงเทพฯ 10900",
            "latitude": 13.8079938,
            "longitude": 100.5588329
        },
        {
            "id": 81,
            "name_store": "Crystal Design Center",
            "type": "BKK",
            "province": "กรุงเทพฯ",
            "address": "เลขที่ 1448\/13  ยูนิต 105, 106 ชั้น1  อาคารเคห้า โครงการคริสตัล ดีไซน์ เซ็นเตอร์ ซอย ลาดพร้าว 87 (จันทร์สุข) ถนนประดิษฐ์มนูธรรม แขวงคลองจั่น เขตบางกะปิ กทม. 10240",
            "latitude": 13.8041364,
            "longitude": 100.6174927
        },
        {
            "id": 82,
            "name_store": "Big-C Rajdamri",
            "type": "BKK",
            "province": "กรุงเทพฯ",
            "address": "เลขที่ 97\/11 ยูนิต จีซีอาร์115 ชั้น 1 บิ๊กซี ซุปเปอร์เซ็นเตอร์ ราชดําริ ถนนราชดําริห์ แขวงลุมพินี เขตปทุมวัน กรุงเทพมหานคร   10330",
            "latitude": 13.7393305,
            "longitude": 100.5394879
        },
        {
            "id": 83,
            "name_store": "Muang Thai Phatra ",
            "type": "BKK",
            "province": "กรุงเทพฯ",
            "address": "เลขที่ 252\/200 ( P-204 )ชั้น 2  อาคารเมืองไทยภัทร คอมเพล็กซ์ ถนนรัชดาภิเษก แขวงห้วยขวาง เขตห้วยขวาง กรุงเทพฯ 10310",
            "latitude": 13.787042,
            "longitude": 100.5751109
        },
        {
            "id": 84,
            "name_store": "Central Chiangrai",
            "type": "UPC",
            "province": "เชียงราย",
            "address": "เลขที่ 99\/9 หมู่ที่13  ยูนิต 216-217 ชั้น2 ศูนย์การค้าเซ็นทรัล เชียงราย\n ตำบลรอบเวียง อำเภอเมือง\nเชียงราย จังหวัดเชียงราย 57000\n",
            "latitude": 19.8866657,
            "longitude": 99.83476660000001
        },
        {
            "id": 85,
            "name_store": "Central Khonkaen-2",
            "type": "UPC",
            "province": "ขอนแก่น",
            "address": "เลขที่ 99 ยูนิต จี04-05 ชั้น จี ศูนย์การค้าเซ็นทรัล พลาซ่า ขอนแก่น  ถนนศรีจันทร์ ตําบลในเมือง อําเภอเมืองขอนแก่น จังหวัดขอนแก่น  40000",
            "latitude": 16.4329489,
            "longitude": 102.8257675
        },
        {
            "id": 86,
            "name_store": "Sunee Ubon ",
            "type": "UPC",
            "province": "อุบลราชธานี",
            "address": "เลขที่ 512\/8 ห้องเลขที่  106 ศูนย์การค้าสุนีย์ ทาวเวอร์ \n ถนนชยางกูร ตำบลในเมือง อำเภอเมืองอุบลราชธานี\nจังหวัดอุบลราชธานี 34000",
            "latitude": 15.2559662,
            "longitude": 104.8481852
        },
        {
            "id": 87,
            "name_store": "The Nine ",
            "type": "BKK",
            "province": "กรุงเทพฯ",
            "address": "เลขที่ 999\/2 ยูนิต เอฟ01 ซี01000-เอฟ01ซี02000 ชั้น 1 อาคารซี   โครงการเดอะ ไนน์ ถนนพระรามเก้า แขวงสวนหลวง เขตสวนหลวงกรุงเทพมหานคร  10250",
            "latitude": 13.7414219,
            "longitude": 100.6248294
        },
        {
            "id": 88,
            "name_store": "Siam Square 2 ",
            "type": "BKK",
            "province": "กรุงเทพฯ",
            "address": "เลขที่ 414,414\/1,414\/2 ชั้น1 ถนนอังรีดูนังต์ \nแขวงปทุมวัน เขตปทุมวัน กทม 10330",
            "latitude": 13.7429848,
            "longitude": 100.5359001
        },
        {
            "id": 89,
            "name_store": "Big C Udon",
            "type": "UPC",
            "province": "อุดรธานี",
            "address": "เลขที่415 ห้องที่ 2 CR209, 2CR219 ชั้นที่ 2 ศูนย์การค้าบิ๊กซี ซูปปอร์เซ็นเตอร์ \n ตำบลหมากแข้ง อำเภอเมืองอุดรธานี จ.อุดรธานี 41000",
            "latitude": 17.4054865,
            "longitude": 102.7965732
        },
        {
            "id": 90,
            "name_store": "Laemtong Bangsan",
            "type": "UPC",
            "province": "ชลบุรี",
            "address": "เลขที่ 278\/2 ห้องเลขที่ ยูนิต เอ 001-เอ 001\/1 ชั้น 1 แหลมทองช็อปปิ้งพลาซ่า บางแสน ถนนลงหาดบางแสน ตําบลแสนสุข อําเภอเมืองชลบุรี จังหวัดชลบุรี 20130",
            "latitude": 13.2864805,
            "longitude": 100.9273329
        },
        {
            "id": 91,
            "name_store": "C.Ladprao",
            "type": "BKK",
            "province": "กรุงเทพฯ",
            "address": "เลขที่ 1697 ศูนย์การค้าเซ็นทรัล ลาดพร้าว ห้อง จี 64-66 ชั้นจี ถนนพหลโยธิน แขวงลาดยาว \nเขตจตุจักร กทม 10900",
            "latitude": 13.8428939,
            "longitude": 100.577347
        },
        {
            "id": 92,
            "name_store": "Tesco Thalang",
            "type": "UPC",
            "province": "ภูเก็ต",
            "address": "เลขที่ 303 หมู่ที่ 1 ตำบลเทพกระษัตรี อำเภอถลาง\nจังหวัดภูเก็ต 83110",
            "latitude": 8.0245973,
            "longitude": 98.33932569999999
        },
        {
            "id": 93,
            "name_store": "Terminal 21 ",
            "type": "BKK",
            "province": "กรุงเทพฯ",
            "address": "เลขที่ 2, 88 ห้องเลขที่ เอสเอช-แอลจี010 ชั้นแอลจี\n ศูนย์การค้าเทอมินอล21 ซอยสุขุมวิท 19 (วัฒนา)\nถนนสุขุมวิท แขวงคลองเตยเหนือ เขตวัฒนา \nกรุงเทพมหานคร 10110",
            "latitude": 13.7377188,
            "longitude": 100.560122
        },
        {
            "id": 94,
            "name_store": "Central Phisanulok",
            "type": "UPC",
            "province": "พิษณุโลก",
            "address": "เลขที่9\/99 หมู่ที่5 ห้องเลขที่ 225-226 ชั้น2 ศูนย์การค้าเซ็นทรัล พิษณุโลก \nตำบลพลายชุมพล อำเภอเมืองพิษณุโลก\nจ.พิษณุโลก 65000",
            "latitude": 16.8403964,
            "longitude": 100.2328298
        },
        {
            "id": 95,
            "name_store": "Central Rama 9 ",
            "type": "BKK",
            "province": "กรุงเทพฯ",
            "address": "เลขที่ 9\/8, 9\/9 ยูนิต 312 ชั้น 3 ศูนย์การค้าเซ็นทรัล พลาซ่า พระราม 9 \nถนนพระราม 9 แขวงห้วยขวาง \nเขตห้วยขวาง กรุงเทพฯ 10320",
            "latitude": 13.7592733,
            "longitude": 100.5662074
        },
        {
            "id": 96,
            "name_store": "Rayong",
            "type": "UPC",
            "province": "ระยอง",
            "address": "เลขที่554 แพชชั่น ช้อปปิ้ง เดสติเนชั่น ยูนิต 1 เอส26 ชั้น1 ถนนสุขุมวิท ตำบลเนินพระ อำเภอเมืองระยอง จังหวัดระยอง  21000",
            "latitude": 12.7616739,
            "longitude": 100.907339
        },
        {
            "id": 97,
            "name_store": "Tesco Khonkaen ",
            "type": "UPC",
            "province": "ขอนแก่น",
            "address": "เลขที่709 หมู่ที่3  ชั้น1  ตำบลศิลา อำเภอเมืองขอนแก่น \nจังหวัดขอนแก่น 40000",
            "latitude": 16.4778818,
            "longitude": 102.8557992
        },
        {
            "id": 98,
            "name_store": "Park Venture ",
            "type": "BKK",
            "province": "กรุงเทพฯ",
            "address": "เลขที่57 ห้องเลขที่ 108 ชั้น 1 อาคารปาร์คเวนเชอร์ อีโคเพล็กซ์ \n แขวงลุมพินี เขตปทุมวัน กทม 10330",
            "latitude": 13.7426426,
            "longitude": 100.5479813
        },
        {
            "id": 99,
            "name_store": "The Mall Bangkapi 2",
            "type": "BKK",
            "province": "กรุงเทพฯ",
            "address": "เลขที่ 3522 ห้องเลขที่จีเอส-ซี18 ชั้นจี ศูนย์การค้า เดอะมอลล์ บางกะปิ ถนนลาดพร้าว แขวงคลองจั่น   เขตบางกะปิ กรุงเทพมหานคร 10240",
            "latitude": 13.7657541,
            "longitude": 100.642196
        },
        {
            "id": 100,
            "name_store": "Big C Extra Chaengwattana ",
            "type": "UPC",
            "province": "นนทบุรี",
            "address": "เลขที่112 หมู่ที่5 ยูนิต จีซีอาร์อาร์ที4 ชั้น1 อาคารบิ๊กซี เอ็กซ์ตร้า แจ้งวัฒนะ  ตำบลปากเกร็ด อำเภอปากเกร็ด จังหวัดนนทบุรี 1120",
            "latitude": 13.9057401,
            "longitude": 100.514841
        },
        {
            "id": 101,
            "name_store": "Udonthani",
            "type": "UPC",
            "province": "อุดรธานี",
            "address": "เลขที่ 277\/1-3, 271\/5 ยูนิตจี 02-03 ชั้นจี เซ็นทรัล อุดรธานี \n ถนนประจักษ์ศิลปาคม \nตำบลหมากแข้ง อำเภอเมืองอุดรธานี จังหวัดอุดรธานี 41000",
            "latitude": 17.4059419,
            "longitude": 102.8002809
        },
        {
            "id": 102,
            "name_store": "Bangna Tower ",
            "type": "UPC",
            "province": "สมุทรปราการ",
            "address": "เลขที่ 2\/3 หมู่ที่ 14 ยูนิตซีและดี อาคารบางนา ทาวเวอร์ \n ถนนบางนาตราด ก.ม.6.5 \nตำบลบางแก้ว อำเภอบางพลี \nจังหวัดสมุทรปราการ 10540",
            "latitude": 13.660181,
            "longitude": 100.6617272
        },
        {
            "id": 103,
            "name_store": "Mega Bangna1 ",
            "type": "UPC",
            "province": "สมุทรปราการ",
            "address": "เลขที่ 39 หมู่ 6 ยูนิต 1674 ชั้น 1 ศูนย์การค้าเมกะ บางนา \nถนนบางนา-ตราด ตำบลบางแก้ว \nอำเภอบางพลี จังหวัดสมุทรปราการ 10540",
            "latitude": 13.6464573,
            "longitude": 100.6810498
        },
        {
            "id": 104,
            "name_store": "The Promenade",
            "type": "BKK",
            "province": "กรุงเทพฯ",
            "address": "เลขที่ 587, 589, 589\/7-9 ยูนิต P-1012, ชั้น 1  อาคารศูนย์การค้าเดอะ พรอมานาด \n ถนนรามอินทรา \nแขวงคันนายาว เขตคันนายาว กรุงเทพฯ 10230",
            "latitude": 13.8266631,
            "longitude": 100.6767459
        },
        {
            "id": 105,
            "name_store": "Int. Intersect",
            "type": "BKK",
            "province": "กรุงเทพฯ",
            "address": "เลขที่ 982 ยูนิตเอ14 ชั้น 1 โครงการอินท์ อินเตอร์เซค \nถนนพระราม3 แขวงบางโพงพาง \nเขตยานนาวา กทม. 10120",
            "latitude": 13.6748102,
            "longitude": 100.5449917
        },
        {
            "id": 106,
            "name_store": "Porto Chino",
            "type": "UPC",
            "province": "สมุทรสาคร",
            "address": "เลขที่ 99\/121 หมู่ที่ 4 ยูนิต บี 111-112 ชั้น 1 ศูนย์การค้าพอร์โต้ ชิโน่ \n ตำบลนาดี อำเภอเมืองสมุทรสาคร \nจังหวัดสมุทรสาคร 74000",
            "latitude": 13.5696076,
            "longitude": 100.2892623
        },
        {
            "id": 107,
            "name_store": "Gateway Ekamai",
            "type": "BKK",
            "province": "กรุงเทพฯ",
            "address": "เลขที่ 982\/22 ยูนิต 1117 ชั้น1 อาคารเกตเวย์ เอกมัย \nถนนสุขุมวิท แขวงพระโขนง \nเขตคลองเตย กทม 10260",
            "latitude": 13.7185261,
            "longitude": 100.5853988
        },
        {
            "id": 108,
            "name_store": "Seacon Bangkae 2 ",
            "type": "BKK",
            "province": "กรุงเทพฯ",
            "address": "\nเลขที่ 607  ยูนิต 216 ชั้น 2 ศูนย์การค้าซีคอน บางแค \nถนนเพชรเกษม แขวงบางหวัา \nเขตภาษีเจริญ กรุงเทพฯ 10160",
            "latitude": 13.7117631,
            "longitude": 100.434132
        },
        {
            "id": 109,
            "name_store": "The Scene Town in Town ",
            "type": "BKK",
            "province": "กรุงเทพฯ",
            "address": "เลขที่ 1323 ยูนิต เอ 121  ชั้น 1 โครงการเดอะ ซีน  \nซอยลาดพร้าว 94 (ปัญจมิตร) \nแขวงพลับพลา เขตวังทองหลาง กรุงเทพฯ 10310",
            "latitude": 13.7729334,
            "longitude": 100.6102735
        },
        {
            "id": 110,
            "name_store": "Central Suratthani ",
            "type": "UPC",
            "province": "จังหวัดสุราษฎร์ธานี",
            "address": "เลขที่ 88 หมู่ที่ 10 ยูนิต 215\/1 ชั้น 2 ตําบลวัดประดู่ อําเภอเมืองสุราษฎร์ธานีจังหวัดสุราษฎร์ธานี 84000",
            "latitude": 9.1367639,
            "longitude": 99.3007367
        },
        {
            "id": 111,
            "name_store": "Sermthai Mahasarakham ",
            "type": "UPC",
            "province": "นครสวรรค์",
            "address": "เลขที่ 76\/1-7 ยูนิต อาร์ 128 ชั้น 1 เสริมไทย คอมเพล็กซ์ \n ถนนนครสวรรค์ ตำบลตลาด \nอำเภอเมืองมหาสารคาม จังหวัดมหาสารคาม 44000",
            "latitude": 16.2013034,
            "longitude": 103.2765841
        },
        {
            "id": 112,
            "name_store": "Sena Fest",
            "type": "BKK",
            "province": "กรุงเทพฯ",
            "address": "เลขที่ 540 ยูนิต113 ชั้น1 ศูนย์การค้าเสนาเฟสท์  \nถนนเจริญนคร แขวงคลองตันไทร \nเขตคลองสาน กรุงเทพมหานคร 10600",
            "latitude": 13.7192489,
            "longitude": 100.5080261
        },
        {
            "id": 113,
            "name_store": "Central Ubon ",
            "type": "UPC",
            "province": "อุบลราชธานี",
            "address": "เลขที่ 311 หมู่ที่ 7 ยูนิต 205 ชั้น2 ศูนย์การค้าเซ็นทรัล อุบลราชธานี \n ตำบลแจระแม อำเภอเมืองอุบลราชธานี\nจังหวัดอุบลราชธานี 34000",
            "latitude": 15.240119,
            "longitude": 104.8232428
        },
        {
            "id": 114,
            "name_store": "The Wallk Kaset Nawamin ",
            "type": "BKK",
            "province": "กรุงเทพฯ",
            "address": "เลขที่ 509 ยูนิต ซี-บี04, ชั้นบี, ศูนย์การค้าเดอะ วอล์ค เกษตร-นวมินทร์, ถนนประเสริฐมนูกิจ, แขวงลาดพร้าว, เขตลาดพร้าว, กรุงเทพฯ 10230",
            "latitude": 13.8288736,
            "longitude": 100.628345
        },
        {
            "id": 115,
            "name_store": "Promenada Chiangmai ",
            "type": "UPC",
            "province": "เชียงใหม่",
            "address": "เลขที่ 192-193 หมู่ 2 ยูนิตเอล1-030, 1-031 ชั้น 1 \nพรอมเมนาดา เชียงใหม่ \nตำบลท่าศาลา อำเภอเมืองเชียงใหม่ จังหวัดเชียงใหม่ 50000",
            "latitude": 18.7658871,
            "longitude": 99.0365698
        },
        {
            "id": 116,
            "name_store": "Big C Extra Pattaya Klang ",
            "type": "UPC",
            "province": "ชลบุรี",
            "address": "เลขที่333 หมู่ที่9 ยูนิตจีซีอาร์109 บิ๊กซี ซูปเปอร์เซ็นเตอร์ พัทยา กลาง\n ถนนพัทยากลาง ตำบลหนองปรือ อำเภอบางละมุง จังหวัดชลบุรี 20150",
            "latitude": 12.9291214,
            "longitude": 100.8961849
        },
        {
            "id": 117,
            "name_store": "Big C Srinakarin ",
            "type": "UPC",
            "province": "สมุทรปราการ",
            "address": "\nเลขที่ 425 หมู่ที่ 5 ยูนิตจีซีอาร์104 บิ๊กซี ซุปเปอร์เซ็นเตอร์ สาขา ศรีนครินทร์ถนนศรีนครินทร์ ตําบลสําโรงเหนือ อําเภอเมืองสมุทรปราการ  จังหวัดสมุทรปราการ  10270",
            "latitude": 13.7613948,
            "longitude": 100.6452297
        },
        {
            "id": 118,
            "name_store": "Big C Extra Ladprao ",
            "type": "BKK",
            "province": "กรุงเทพฯ",
            "address": "เลขที่ 669 บิ๊กซี เอ๊กซ์ตร้า ลาดพร้าว 2  ยูนิต จีซีอาร์ 121 ชั้นที่ 1 ถนนลาดพร้าว แขวงจอมพล เขตจตุจักร กรุงเทพฯ 10900",
            "latitude": 13.8165884,
            "longitude": 100.5963832
        },
        {
            "id": 119,
            "name_store": "Harbor Mall ",
            "type": "UPC",
            "province": "ชลบุรี",
            "address": "เลขที่ 4\/222 ยูนิตจีอาร์02 ชั้นจี ศูนย์การค้า ฮาร์เบอร์ มอลล์\nหมู่ที่ 10 ถนนสุขุมวิท ตำบลทุ่งสุขลา\nอำเภอศรีราชา จังหวัดชลบุรี 20230",
            "latitude": 13.095262,
            "longitude": 100.9139732
        },
        {
            "id": 120,
            "name_store": "Belle Corridor Rama 9 ",
            "type": "BKK",
            "province": "กรุงเทพฯ",
            "address": "เลขที่131 อาคารShoppes at Corridor Belle ยูนิตบีจี 017 ชั้นจี ซอยทวีมิตร ถนนพระราม9 แขวงห้วยขวาง เขตห้วยขวาง กทม 10320              ",
            "latitude": 13.7584428,
            "longitude": 100.5707881
        },
        {
            "id": 121,
            "name_store": "Mercury Ville",
            "type": "BKK",
            "province": "กรุงเทพฯ",
            "address": "เลขที่ 540  ยูนิต 207 ชั้น2  \n  อาคารเมอร์คิวรี่ ทาวเวอร์  ถนนเพลินจิต \nแขวงลุมพินี เขตปทุมวัน กทม 10330",
            "latitude": 13.7433663,
            "longitude": 100.544149
        },
        {
            "id": 122,
            "name_store": "Robinson Ratchaburi",
            "type": "UPC",
            "province": "ราชบุรี",
            "address": "เลขที่ 265 ยูนิตที่  BF-C-05-06 ชั้น BF โรบินสัน สาขาราชบุรี \nถนนศรีสุริยวงศ์  ตำบลหน้าเมือง  อำเภอเมืองราชบุรี   \nจังหวัดราชบุรี   70000  ",
            "latitude": 13.5349545,
            "longitude": 99.811239
        },
        {
            "id": 123,
            "name_store": "Central Festival Chiangmai",
            "type": "UPC",
            "province": "เชียงใหม่",
            "address": "เลขที่ 99,99\/1,99\/2 หมู่ 4 อาคารศูนย์การค้าเซ็นทรัล  เฟสติวัล เชียงใหม่  ห้องเลขที่ G14 ชั้น G \n ตำบลฟ้าฮ่าม \nอำเภอเมืองเชียงใหม่ จังหวัดเชียงใหม่ 50000",
            "latitude": 18.6968804,
            "longitude": 98.92922779999999
        },
        {
            "id": 124,
            "name_store": "Robinson Saraburi ",
            "type": "UPC",
            "province": "สระบุรี",
            "address": "เลขที่ 99 หมู่7 อาคารศูนย์การค้าโรบินสัน สระบุรี ห้องเลขที่ ยูนิต 202 ชั้น 2 ตำบลตลิ่งชัน อำเภอเมืองสระบุรี จังหวัดสระบุรี 18000",
            "latitude": 14.55008,
            "longitude": 100.9635677
        },
        {
            "id": 125,
            "name_store": "Central Festival Hadyai",
            "type": "UPC",
            "province": "สงขลา",
            "address": "เลขที่ 1518,1518\/1 ,1518\/2   โครงการศูนย์การค้าเซ็นทรัล   เฟสติวัล หาดใหญ่ ห้องเลขที่ จี 08 ชั้น จี ถนนกาญจนวณิชย์ ตำบลหาดใหญ่ อำเภอหาดใหญ่ จังสงขลา 90110",
            "latitude": 6.9932862,
            "longitude": 100.485684
        },
        {
            "id": 126,
            "name_store": "The Brio Mall ",
            "type": "UPC",
            "province": "นครปฐม",
            "address": "เลขที่ 199\/5 หมู่ 6 อาคาร โครงการ เดอะ บริโอ้ พุทธมณฑลสาย 4 ห้องเลขที่  บี 107-8  ตำบลศาลายา อำเภอพุทธมณฑล  จังหวัดนครปฐม 73170",
            "latitude": 13.8000598,
            "longitude": 100.295277
        },
        {
            "id": 127,
            "name_store": "Taweekit Supercenter Buriram",
            "type": "UPC",
            "province": "บุรีรัมย์",
            "address": "เลขที่ 274 หมู่ที่ 8 โครงการทวิกิจ ซุปเปอร์เซ็นเตอร์ ห้องเลขที่ ยูนิต บี01 ชั้น 1 ถนนบุรีรัมย์-นางรอง ตำบลอิสาณ อำเภอเมือง จังหวัดบุรีรัมย์ 31000",
            "latitude": 14.975783,
            "longitude": 103.0708161
        },
        {
            "id": 128,
            "name_store": "Maya Chiangmai",
            "type": "UPC",
            "province": "เชียงใหม่",
            "address": "เลขที่ 55\/5 หมู่ที่5 อาคารศูนย์การค้าเมญา เชียงใหม่ ห้องเลขที่ B08 ชั้น B1 ถนนซุปเปอร์ไฮเวย์ ตำบลช้างเผือก \nอำเภอเมืองเชียงใหม่ จังหวัดเชียงใหม่ 50300 ",
            "latitude": 18.7672042,
            "longitude": 99.0369926
        },
        {
            "id": 129,
            "name_store": "Hua Hin Market Village B Floor ",
            "type": "UPC",
            "province": "ประจวบคีรีขันธ์",
            "address": "เลขที่ 234\/1 ยูนิต เอส 123 ชั้น จี โครงการหัวหินมาร์เก็ตวิลเลจ    ถนนเพชรเกษม ตําบลหัวหิน อําเภอหัวหิน จังหวัดประจวบคีรีขันธ์ 77110",
            "latitude": 12.5577463,
            "longitude": 99.960394
        },
        {
            "id": 130,
            "name_store": "Tesco Lotus The Walk Nakhonsawan",
            "type": "UPC",
            "province": "นครสวรรค์",
            "address": "เลขที่ 914\/17 หมู่ที่ 10 ตำบลนครสวรรค์ตก อำเภอเมืองนครสวรรค์ จังหวัดนครสวรรค์ 60000",
            "latitude": 15.7246087,
            "longitude": 100.1117806
        },
        {
            "id": 131,
            "name_store": "River City",
            "type": "BKK",
            "province": "กรุงเทพฯ",
            "address": " เลขที่ 23 อาคารศูนย์การค้าริเวอร์ ซิตี้ ห้องเลขที่  ยูนิต 144-145, 145A ชั้น 1  ถนนโยธา แขวงตลาดน้อย เขตสัมพันธ์วงศ์ กรุงเทพฯ 10100",
            "latitude": 13.7320006,
            "longitude": 100.5146026
        },
        {
            "id": 132,
            "name_store": "The Paseo Ladkrabang",
            "type": "BKK",
            "province": "กรุงเทพฯ",
            "address": "เลขที่ 318\/5-8 ศูนย์การค้าเดอะพาซิโอ ทาวน์ ลาดกระบัง  ห้องเลขที่ เอ 103\/2 ชั้น 1\nถนนลาดกระบัง แขวงลาดกระบัง\nเขตลาดกระบัง กรุงเทพฯ 10520",
            "latitude": 13.7223051,
            "longitude": 100.7454657
        },
        {
            "id": 133,
            "name_store": "The Crystal PTT",
            "type": "UPC",
            "province": "นนทบุรี",
            "address": "เลขที่ 99\/8 หมู่ที่ 5 โครงการ เดอะคริสตัล พีทีที ห้องเลขที่ ยูนิต 101-102 ชั้น 1 ถนนชัยพฤกษ์ ตำบลคลองพระอุดม อำเภอปากเกร็ด จังหวัดนนทบุรี 11120",
            "latitude": 13.9226096,
            "longitude": 100.4779361
        },
        {
            "id": 134,
            "name_store": "Grand Diamond Plaza ",
            "type": "BKK",
            "province": "กรุงเทพฯ",
            "address": "เลขที่ 888\/1-18 อาคารแกรนด์ ไดมอนด์ พลาซ่า ห้องเลขที่  ยูนิต บี02-บี03 ชั้นบี ถนนเพชรบุรี แขวงถนนเพชรบุรี เขตราชเทวี กรุงเทพฯ 10400",
            "latitude": 13.7502079,
            "longitude": 100.5383777
        },
        {
            "id": 135,
            "name_store": " Central Festival Samui ",
            "type": "UPC",
            "province": "จังหวัดสุราษฎร์ธานี",
            "address": "เลขที่ 209, 209\/1, 209\/2 หมู่ที่ 2  ศูนย์การค้าเซ็นทรัล เฟสติวัล สมุย ห้องเลขที่ 276 ชั้น \n ตำบลบ่อผุด \nอำเภอเกาะสมุย จังหวัดสุราษฎร์ธานี 84320",
            "latitude": 9.5322247,
            "longitude": 100.060913
        },
        {
            "id": 136,
            "name_store": "Villa Market Laguna Phuket ",
            "type": "UPC",
            "province": "ภูเก็ต",
            "address": "เลขที่ 49\/13 ศูนย์การค้าวิลล่า มาร์เก็ท ลากูน่า\n ถนนบ้านดอน-เชิงทะเล \nตำบลเชิงทะเล อำเภอถลาง \nจำงหวัดภูเก็ต 83110",
            "latitude": 7.995290199999999,
            "longitude": 98.30449499999999
        },
        {
            "id": 137,
            "name_store": "Bee Hive Muangthongthani",
            "type": "UPC",
            "province": "นนทบุรี",
            "address": "เลขที่ 50\/1211  โครงการบีไฮฟ์ เมืองทองธานี ห้องเลขที่ เอ 106 หมู่ที่ 9 ตำบลบางพูด อำเภอบางเกร็ด จังหวัดนนทบุรี 11120",
            "latitude": 13.9169298,
            "longitude": 100.5411039
        },
        {
            "id": 138,
            "name_store": "Thonglor",
            "type": "BKK",
            "province": "กรุงเทพฯ",
            "address": "เลขที่ 21,23 ทองหล่อ (ปากซอย) ซอยสุขุมวิท 55 (ทองหล่อ) แขวงคลองตันเหนือ เขตวัฒนา กรุงเทพฯ 10110",
            "latitude": 13.7424537,
            "longitude": 100.5854359
        },
        {
            "id": 139,
            "name_store": "I'm Park",
            "type": "BKK",
            "province": "กรุงเทพฯ",
            "address": "เลขที่ 353 โครงการแอมพาร์ค ยูนิต บี107 ชั้น 1 ถนนเจริญเมือง แขวงวังใหม่ เขตปทมุวัน กรุงเทพฯ 10330",
            "latitude": 13.7405268,
            "longitude": 100.5211085
        },
        {
            "id": 140,
            "name_store": "Tesco Bangyai ",
            "type": "UPC",
            "province": "นนทบุรี",
            "address": "เลขที่ 90 หมู่ 5 ถนนกาญจนาภิเษก ตำบลบางคูเวียง \nอำเภอบางกรวย จังหวัดนนทบุรี 11130",
            "latitude": 13.7977703,
            "longitude": 100.4112336
        },
        {
            "id": 141,
            "name_store": "Central Salaya ",
            "type": "UPC",
            "province": "นครปฐม",
            "address": "เลขที่ 99\/19, 99\/20 หมู่ที่ 2 เซ็นทรัล พลาซา ศาลายา  ห้องเลขที่ 302 ชั้น 3 \nตำบลบางเตย \nอำเภอสามพราน จังหวัดนครปฐม 73170",
            "latitude": 13.7862395,
            "longitude": 100.2878045
        },
        {
            "id": 142,
            "name_store": "Market Place Pracha-Utis",
            "type": "BKK",
            "province": "กรุงเทพฯ",
            "address": "เลขที่ 15 โครงการมาร์เก็ตเพลส ประชาอุทิศ ยูนิต เอ110-111 ชั้นจี ถนนประชาอุทิศ แขวงทุ่งครุ เขตทุ่งครุ กรุงเทพมหานคร 10140",
            "latitude": 13.6397977,
            "longitude": 100.5013681
        },
        {
            "id": 143,
            "name_store": "Tukcom South Pattaya ",
            "type": "UPC",
            "province": "ชลบุรี",
            "address": "เลขที่ 8 หมู่ 10 ตึกคอมพัทยาใต้อาคารศูนย์การค้าตึกคอมพัทยาใต้  ชั้น จี\n ถนนพัทยาใต้  ตำบลหนองปรือ\nอำเภอบางละมุง จังหวัดชลบุรี 20150",
            "latitude": 12.9240391,
            "longitude": 100.878565
        },
        {
            "id": 144,
            "name_store": "Robinson Chachoengsao",
            "type": "UPC",
            "province": "ฉะเชิงเทรา",
            "address": "เลขที่ 910 โรบินสัน ฉะเชิงเทรา\nถนนฉะเชิงเทรา-บางปะกง\nตำบลหน้าเมือง อำเภอเมืองฉะเชิงเทรา\nจังหวัดฉะเชิงเทรา 24000",
            "latitude": 13.6678641,
            "longitude": 101.0485148
        },
        {
            "id": 145,
            "name_store": "Ayutthaya City Park ",
            "type": "UPC",
            "province": "พระนครศรีอยุธยา",
            "address": "เลขที่ 126 หมู่ที่ 3 อยุธยา พาร์ค ศูนย์การค้าอยุธยาซิตี้พาร์ค ห้องเลขที่ จีพี-11-14  ถนนสายเอเชีย \nตำบลคลองสวนพลู อำเภอพระนครศรีอยุธยา\nพระนครศรีอยุธยา 13000",
            "latitude": 14.3152062,
            "longitude": 100.6235352
        },
        {
            "id": 146,
            "name_store": "Plearnary Mall",
            "type": "BKK",
            "province": "กรุงเทพฯ",
            "address": "เลขที่ 246 เพลินนารี่ มอลล์ห้องเลขที่ ยูนิต บี 103 ชั้น 1 \n ถนนวัชรพล แขวงท่าแร้ง \nเขตบางเขน กรุงเทพฯ 10230",
            "latitude": 13.8583229,
            "longitude": 100.6398998
        },
        {
            "id": 147,
            "name_store": "The Crystal Ratchapruek",
            "type": "UPC",
            "province": "นนทบุรี",
            "address": "555\/9 หมู่ที่ 1  เดอะคริสตัล ราชพฤกษ์ อาคาร B ศูนย์การค้าคริสตัล ราชพฤกษ์  ห้องเลขที่ 106-107 ชั้น 1ตำบลบางขนุน อำเภอบางกรวย นนทบุรี 11130.",
            "latitude": 13.8054203,
            "longitude": 100.6463874
        },
        {
            "id": 148,
            "name_store": "Asawann 2 Nongkai",
            "type": "UPC",
            "province": "หนองคาย",
            "address": "เลขที่ 88\/8 หมู่ที่ 5 อัศวรรณ 2 ศูนย์การค้าอัศวรรณช๊อปปิ้งคอมเพล๊กซ์ 2 ห้องเลขที่ เอ-14 ชั้น 1 ตำบลโพธิ์ชัย อำเภอเมืองหนองคาย จังหวัดหนองคาย 43000",
            "latitude": 17.8719402,
            "longitude": 102.7426742
        },
        {
            "id": 149,
            "name_store": "Sathorn Square",
            "type": "BKK",
            "province": "กรุงเทพฯ",
            "address": "เลขที่ 98 สาทรสแควร์  อาคารสาทรสแควร์ ห้องเลขที่ ยูนิต 206 ชั้น 2    ถนนสาทรเหนือ แขวงสีลม เขตบางรัก กรุงเทพฯ 10500",
            "latitude": 13.7205054,
            "longitude": 100.521504
        },
        {
            "id": 150,
            "name_store": "Victoria Gardens ",
            "type": "BKK",
            "province": "กรุงเทพฯ",
            "address": "เลขที่ 1869\/7 วิคตอเรีย การ์เด้นท์ อาคารแอล  โครงการ Victoria Gardens ห้องเลขที่ บี118-119 ชั้น 1  ถนนเพชรเกษม แขวงหลักสอง เขตบางแค กรุงเทพฯ 10160",
            "latitude": 13.7076946,
            "longitude": 100.3784116
        },
        {
            "id": 151,
            "name_store": "Market Village Suvannabhumi",
            "type": "UPC",
            "province": "สมุทรปราการ",
            "address": "เลขที่ 99\/29 หมูที่ 1 มาร์เก็ต วิลเลจ สุวรรณภูมิ  ห้องเลขที่ ยูนิต เอส131,เอส136 ชั้น 1  ตำบลราชาเทวะ อำเภอบางพลี จังหวัดสมุทรปราการ 10540",
            "latitude": 13.5991618,
            "longitude": 100.6981179
        },
        {
            "id": 152,
            "name_store": "Emquartier (Flagship)",
            "type": "BKK",
            "province": "กรุงเทพฯ",
            "address": "เลขที่ 689 เอ็มควอเทียร์ ศูนย์การค้าเอ็มควอเทียร์ ห้องเลขที่ 3B 02-03A ชั้น 3 ถนนสุขุมวิท แขวงคลองตันเหนือ เขตวัฒนา กรุงเทพฯ 10110",
            "latitude": 13.7272345,
            "longitude": 100.575117
        },
        {
            "id": 153,
            "name_store": "Future Park Rangsit ",
            "type": "UPC",
            "province": "ปทุมธานี",
            "address": "เลขที่ 94 ฟิวเจอร์พาร์ค  ชั้น บี ศูนย์การค้าฟิวเจอร์พาร์ค รังสิต ห้องเลขที่  ยูนิต PLZ.B.SHP057B  ชั้น บี  ตำบลประชาธิปัตย์ อำเภอธัญบุรี จังหวัดปทุมธานี 12130",
            "latitude": 13.9891667,
            "longitude": 100.6180717
        },
        {
            "id": 154,
            "name_store": "Central Plaza Rayong",
            "type": "UPC",
            "province": "ระยอง",
            "address": "เลขที่ 99,99\/1  เซ็นทรัล พลาซ่า ระยอง  ห้องเลขที่ ยูนิต 240-241 ชั้น 2 ถนนบางนา-ตราด ตำบลเชิงเนิน อำเภอ เมืองระยอง จังหวัด ระยอง 21000",
            "latitude": 12.6962822,
            "longitude": 101.2679932
        },
        {
            "id": 155,
            "name_store": "Tesco Chiangmai Khamtiang ",
            "type": "UPC",
            "province": "เชียงใหม่",
            "address": "เลขที่ 19  ชั้น1  ถนนตลาดคำเที่ยง ตำบลป่าตัน อำเภอเมือเชียงใหม่ จังหวัดเชียงใหม่ 50300",
            "latitude": 18.8085876,
            "longitude": 98.9958078
        },
        {
            "id": 156,
            "name_store": "Mega Banna 2",
            "type": "UPC",
            "province": "สมุทรปราการ",
            "address": "เลขที่ 39  หมู่ที่ 6 ศูนย์การค้าเมกะ บางนา ห้องเลขที่ 1334,1335  ชั้น1 ถนนบางนา-ตราด ตำบลบางแก้ว อำเภอบางพลี จังหวัดสมุทรปราการ 10540",
            "latitude": 13.6646722,
            "longitude": 100.6724121
        },
        {
            "id": 157,
            "name_store": "Central Plaza Lampang",
            "type": "UPC",
            "province": "ลำปาง",
            "address": "เลขที่ 319 ศูนย์การค้าเซ็นทรัลลำปาง  ห้องเลขที่ 202 ชั้นที่ 2 ตำบลสวนดอก อำเภอเมืองลำปาง จังหวัดลำปาง 52000",
            "latitude": 18.289144,
            "longitude": 99.4964335
        },
        {
            "id": 158,
            "name_store": "Bangrak (soi Charoen Krung 50)",
            "type": "BKK",
            "province": "กรุงเทพฯ",
            "address": "เลขที่1524 ถนนเจริญกรุง แขวงบางรัก เขตบางรัก กทม 10500",
            "latitude": 13.7191335,
            "longitude": 100.515193
        },
        {
            "id": 159,
            "name_store": "Tesco Banpong",
            "type": "UPC",
            "province": "ราชบุรี",
            "address": "เลขที่ 110 หมู่ที่ 5 ตำบลหนองอ้อ อำเภอบ้านโป่ง จังหวัดราชบุรี 70110",
            "latitude": 13.7935441,
            "longitude": 99.92313469999999
        },
        {
            "id": 160,
            "name_store": "RBS Burirum",
            "type": "UPC",
            "province": "บุรีรัมย์",
            "address": "เลขที่ 125 ยูนิต 122-123 ชั้น 1 เอฟ โรบินสัน บุรีรัมย์ หมู่ 6 ตำบลกระสัง อำเภอเมืองบุรีรัมย์ จังหวัดบุรีรัมย์ 31000",
            "latitude": 14.973526,
            "longitude": 103.065065
        },
        {
            "id": 161,
            "name_store": "Tesco Hadyai",
            "type": "UPC",
            "province": "สงขลา",
            "address": "เลขที่ 1142 ถนนกาญจนวณิชย์ ตำบลหาดใหญ่ อำเภอหาดใหญ่ จังหวัดสงขลา 90110",
            "latitude": 6.9932862,
            "longitude": 100.485684
        },
        {
            "id": 162,
            "name_store": "Central West Gate",
            "type": "UPC",
            "province": "นนทบุรี",
            "address": "เลขที่199,199\/1,199\/2 หมู่ที่6 ศูนย์การค้าเซ็นทรัล เวสต์เกต ห้องเลขที่ 249\/2 ,250\/1 ชั้น 2 ตำบลเสาธงหิน อำเภอบางใหญ่ นนทบุรี 11140",
            "latitude": 13.8770958,
            "longitude": 100.4113483
        },
        {
            "id": 163,
            "name_store": "The Jas Ramindra",
            "type": "BKK",
            "province": "กรุงเทพฯ",
            "address": "เลขที่ 87  ศูนย์การค้า เดอะแจส รามอินทรา ห้องเลขที่ A110 ถนนลาดปลาเค้า แขวงอนุสาวรีย์ฯ      เขตบางเขน กรุงเทพ 10220",
            "latitude": 13.8620548,
            "longitude": 100.6124595
        },
        {
            "id": 164,
            "name_store": "Robinson Nakhornsrithammarat ",
            "type": "UPC",
            "province": "นครศรีธรรมราช",
            "address": "เลขที่ 89\/201  ศูนย์การค้าโรบินสัน นครศรีธรรมราช เลขที่ห้อง 212 ชั้น2F ถนนพัฒนาการคูขวาง ตำบลคลัง อำเภอเมืองนครศรีธรรมราช จังหวัดนครศรีธรรมราช 80000",
            "latitude": 8.42723,
            "longitude": 99.9725455
        },
        {
            "id": 165,
            "name_store": "Robinson Srisaman ",
            "type": "UPC",
            "province": "นนทบุรี",
            "address": "เลขที่ 99 หมู่ที่ 1 โรบินสัน ศรีสมาน ศูนย์การค้าโรบินสัน ศรีสมาน ห้องเลขที่ 124 ชั้น 1 เอฟ  ตำบลบ้านใหม่ อำเภอปากเกร็ด จังหวัดนนทบุรี 11120",
            "latitude": 13.9402474,
            "longitude": 100.5534638
        },
        {
            "id": 166,
            "name_store": "Fashion Island B Floor",
            "type": "BKK",
            "province": "กรุงเทพฯ",
            "address": "เลขที่ 587,589,589\/7-9 แฟชั่น ไอส์แลนด์  ชั้นบี  ศูนย์การค้าแฟชั่น ไอส์แลน  ห้องเลขที่ บี 036 ชั้นบี    ถนนรามอินทรา แขวงคันนายาว เขตคันนายาว กรุงเทพฯ 10230",
            "latitude": 13.826403,
            "longitude": 100.6789691
        },
        {
            "id": 167,
            "name_store": "Central East Ville",
            "type": "BKK",
            "province": "กรุงเทพฯ",
            "address": "เลขที่ 69,69\/1,69\/2, 69\/4  โครงการศูนย์การค้าเซ็นทรัลเฟสติวัล อีสต์วิลล์ ห้องเลขที่ 259 ชั้น 2    ถนนประดิษฐ์มนูธรรม แขวงลาดพร้าว เขตลาดพร้าว จังหวัดกรุงเทพฯ 10230",
            "latitude": 13.8033394,
            "longitude": 100.6146625
        },
        {
            "id": 168,
            "name_store": "The Street Ratchada",
            "type": "BKK",
            "province": "กรุงเทพฯ",
            "address": "เลขที่ 139 อาคารเดอะ สตรีท รัชดา ห้องเลขที่ 108 ชั้น 1  ถนนรัชดาภิเษก แขวงดินแดง เขตดินแดง จ.กรุงเทพฯ 10400",
            "latitude": 13.7705118,
            "longitude": 100.5722782
        },
        {
            "id": 169,
            "name_store": "Riverside Plaza",
            "type": "BKK",
            "province": "กรุงเทพฯ",
            "address": "เลขที่ 257\/6 อาคารริเวอร์ไซด์ พล่าซ่า ห้องเลขที่ 208-209 ชั้น 2 ถนนเจริญนคร แขวงสำเหร่ เขตธนบุรี กรุงเทพฯ 10600",
            "latitude": 13.7081941,
            "longitude": 100.492508
        },
        {
            "id": 170,
            "name_store": "Central Pinklao",
            "type": "BKK",
            "province": "กรุงเทพฯ",
            "address": "เลขที่ 7\/222 เซ็นทรัล ปิ่นเกล้า ศูนย์การค้า เซ็นทรัล ปิ่นเกล้า ห้องเลขที่ 412  ชั้น 4 ถนนบรมราชชนนี  แขวงอรุณอมรินทร์ เขตบางกอกน้อย  กรุงเทพฯ 10700",
            "latitude": 13.7824365,
            "longitude": 100.4740404
        },
        {
            "id": 171,
            "name_store": "Big c Aranyaprathet",
            "type": "UPC",
            "province": "สระแก้ว",
            "address": "เลขที่ 189 หมู่ 7  บิ๊กซี ซูเปอร์เซ็นเตอร์ อรัญประเทศ ห้องเลขที่ อาร์ที 15 ชั้น 1 ตำบลป่าไร่ อำเภออรัญประเทศ จังหวัดสระแก้ว 27120",
            "latitude": 13.6773576,
            "longitude": 102.5549392
        },
        {
            "id": 172,
            "name_store": " Robinson Maesot  ",
            "type": "UPC",
            "province": "ตาก",
            "address": "เลขที่99\/115  โรบินสัน แม่สอด ศูนย์การค้าโรบินสัน แม่สอด ห้องเลขที่ 120\/2-3 ชั้น 1 เอฟ  ถนนสายเอเชีย ตำบลแม่สอด อำเภอแม่สอด จังหวัดตาก 63110",
            "latitude": 16.7225875,
            "longitude": 98.5860671
        },
        {
            "id": 173,
            "name_store": "Suan Plearn Market ",
            "type": "BKK",
            "province": "กรุงเทพฯ",
            "address": "เลขที่ 3654 โครงการสวนเพลิน มาร์เก็ต ห้องเลขที่ เอ 105 ชั้น1 ถนนพระราม4 แขวงคลองตัน เขตคลองเตย กรุงเทพฯ 10110",
            "latitude": 13.7267048,
            "longitude": 100.5206252
        },
        {
            "id": 174,
            "name_store": " Emporium ",
            "type": "BKK",
            "province": "กรุงเทพฯ",
            "address": "เลขที่ 622  ดิ เอ็มโพเรียม ช้อปปิ้งคอมเพล็กซ์  ห้องเลขที่ 3P16-18  ชั้น2   ถ. สุขุมวิท  แขวงคลองตัน เขตคลองเตย กรุงเทพฯ 10110",
            "latitude": 13.7302033,
            "longitude": 100.5689187
        },
        {
            "id": 175,
            "name_store": "Big C Lopburi ",
            "type": "UPC",
            "province": "ลพบุรี",
            "address": "เลขที่2 หมู่ที่ 1 บิ๊กซี ลพบุรี ห้องเลขที่ GCR0124 ชั้น1  ตำบลท่าศาลา อำเภอเมืองลพบุรี จังหวัดลพบุรี 15000",
            "latitude": 14.7941048,
            "longitude": 100.6718981
        },
        {
            "id": 176,
            "name_store": "Union Mall",
            "type": "BKK",
            "province": "กรุงเทพฯ",
            "address": "เลขที่ 54  ศูนย์การค้ายูเนี่ยนมอลล์ ห้องเลขที่  ยูนิต1Q-01ชั้น F1  ซอยลาดพร้าว1 ถนนลาดพร้าว แขวงจอมพล เขตจตุจักร กรุงเทพฯ 10900",
            "latitude": 13.7657541,
            "longitude": 100.642196
        },
        {
            "id": 177,
            "name_store": "Suan Lum Night Bazaar Ratchadaphisek  ",
            "type": "BKK",
            "province": "กรุงเทพฯ",
            "address": "เลขที่ 5  สวนลุมไนท์บาซ่าร์ รัชดาภิเษก ชั้น ซี1  ถนนรัชดาภิเษก แขวงจอมพล เขตจตุจักร กทมฯ 10900",
            "latitude": 13.8046703,
            "longitude": 100.5745399
        },
        {
            "id": 178,
            "name_store": "Sinthorn Tower",
            "type": "BKK",
            "province": "กรุงเทพฯ",
            "address": "เลขที่ 130-132  สินธร ทาวเวอร์ ยูนิต8\/1 ชั้นจี ถนนวิทยุ แขวงลุมพินี เขตปทุมวัน กรุงเทพฯ 10330",
            "latitude": 13.7359938,
            "longitude": 100.5451216
        },
        {
            "id": 179,
            "name_store": " Khaosarn Road",
            "type": "BKK",
            "province": "กรุงเทพฯ",
            "address": "เลขที่255,257 ถนนข้าวสาร แขวงตลาดยอด เขตพระนคร กทม. 10200",
            "latitude": 13.7589206,
            "longitude": 100.4972578
        },
        {
            "id": 180,
            "name_store": "Habito",
            "type": "BKK",
            "province": "กรุงเทพฯ",
            "address": "เลขที่1 ฮาบิโตะ ห้องเลขที่ 101 ชั้น1 ซอมริมคลองพระโขนง แขวงพระโขนงเหนือ เขตวัฒนา กรุงเทพ 10110",
            "latitude": 13.7173814,
            "longitude": 100.5999507
        },
        {
            "id": 181,
            "name_store": "Central Nakornsrithammarat",
            "type": "UPC",
            "province": "นครศรีธรรมราช",
            "address": " เลขที่ 8,9\/8 หมู่ที่7  เซ็นทรัล นครศรีธรรมราช ห้องเลขที่ ยูนิต 240 ชั้นที่ 2  ตำบลนาสาร อำเภอพระพรหม จังหวัดนครศรีธรรมราช 80000",
            "latitude": 8.3702022,
            "longitude": 99.91298450000001
        },
        {
            "id": 182,
            "name_store": "Central World 3rd floor (ZoneE) ",
            "type": "BKK",
            "province": "กรุงเทพฯ",
            "address": "เลขที่ 4,4\/1,4\/2,4\/4 เซ็นทรัลเวิลด์ ชั้น3 (โซนอี) ศูนย์การค้าเซ็นทรัลเวิล์ดพลาซ่า  ห้องเลขที่ ยูนิต อี 316  ชั้น 3 ถนนราชดำริ แขวงปทุมวัน เขตปทุมวัน กรุงเทพฯ 10330",
            "latitude": 13.7460002,
            "longitude": 100.5399162
        },
        {
            "id": 183,
            "name_store": "Robinson Chantaburi",
            "type": "UPC",
            "province": "จันทบุรี",
            "address": "เลขที่ 22\/107 โรบินสัน จันทบุรี หมู่ที่7 ห้องเลขที่ BF-B41 ชั้น BF  ตำบลจันทนิมิต อำเภอเมืองจันทบุรี จังหวัดจันทบุรี 22000",
            "latitude": 12.599828,
            "longitude": 102.115668
        },
        {
            "id": 184,
            "name_store": "The Jas Srinakarin",
            "type": "UPC",
            "province": "สมุทรปราการ",
            "address": "เลขที่ 788 เดอะแจส ศรีนครินทร์  หมู่ที่ 5                       ห้องเลขที่ เอ119 ชั้น 1 ตำบลสำโรงเหนือ อำเภอเมืองสมุทรปราการ จังหวัดสมุทรปราการ 10270",
            "latitude": 13.6353728,
            "longitude": 100.6320263
        },
        {
            "id": 185,
            "name_store": "Central Plaza Marina",
            "type": "UPC",
            "province": "ชลบุรี",
            "address": "เลขที่ 78\/54-56 เซ็นทรัล พลาซ่า มารีนา หมู่ที่ 9   ยูนิต 110, 111\/1 ชั้น 1  ถนนพัทยาสาย 2 ตำบลหนองปรือ อำเภอบางละมุง จังหวัดชลบุรี 20260",
            "latitude": 12.9300956,
            "longitude": 100.8807077
        },
        {
            "id": 186,
            "name_store": "Terminal 21 Korat",
            "type": "UPC",
            "province": "นครราชสีมา",
            "address": "เลขที่ 99 เทอร์มินอล21 โคราช ห้องเลขที่ ยูนิต LG004,LG005 ชั้น LG  ถนนมิตรภาพ-หนองคาย  ตำบลในเมือง อำเภอเมืองนครราชสีมา จังหวัดนครราชสีมา 30000",
            "latitude": 15.8353984,
            "longitude": 102.6087099
        },
        {
            "id": 187,
            "name_store": "Central Chiangmai Airport G Floor",
            "type": "UPC",
            "province": "เชียงใหม่",
            "address": "เลขที่ 2 ถนนมหิดล เลขที่252-252\/1 เซ็นทรัล แอร์พอร์ต เชียงใหม่ ห้องเลขที่ G41 ชั้น G มหิดล  ถนนวัวลาย ตำบลหายยา อำเภอเมืองเชียงใหม่ จังหวัดเชียงใหม่ 50100",
            "latitude": 18.7784706,
            "longitude": 98.9844677
        },
        {
            "id": 188,
            "name_store": "G Tower",
            "type": "BKK",
            "province": "กรุงเทพฯ",
            "address": "เลขที่ 9 จี ทาวเวอร์ ห้องเลขที่ G15 ชั้นที่ G ถนนพระราม 9 แขวงห้วยขวาง เขตห้วยขวาง กรุงเทพฯ 10310",
            "latitude": 13.7537372,
            "longitude": 100.5745125
        },
        {
            "id": 189,
            "name_store": "Tapae Chiangmai 2",
            "type": "UPC",
            "province": "เชียงใหม่",
            "address": "เลขที่ 35,37,39 ท่าแพ เชียงใหม่ ถนนราชดำเนิน ตำบลพระสิงห์ อำเภอเมืองเชียงใหม่ จังหวัดเชียงใหม่",
            "latitude": 18.7877621,
            "longitude": 99.0016654
        },
        {
            "id": 190,
            "name_store": "Jungceylon B",
            "type": "UPC",
            "province": "ภูเก็ต",
            "address": "เลขที่ 181 จังซีลอน ภูเก็ต ชั้น บี ห้องเลขที่ 1006,1008, 1010, 1012   ถนนราษฎร์อุทิศ 200 ปี ตําบลป่าตอง อําเภอกะทู้ จังหวัดภูเก็ต  83150",
            "latitude": 7.892195099999999,
            "longitude": 98.29934779999999
        },
        {
            "id": 191,
            "name_store": "Robinson Petchburi",
            "type": "UPC",
            "province": "เพชรบุรี",
            "address": "เลขที่ 162 หมู่ที่ 1 โรบินสัน เพชรบุรี  ห้องเลขที่ RSS-IF-RR-114 ชั้น 1F ตำบลสมอพลือ อำเภอบ้านลาด เพชรบุรี 76150",
            "latitude": 13.055531,
            "longitude": 99.9554558
        },
        {
            "id": 192,
            "name_store": "Tesco SongKhla",
            "type": "UPC",
            "province": "สงขลา",
            "address": "\nเลขที่ 64 หมู่ที่ 2 ห้องเลขที่ 5120PG56 ชั้น 1 ตําบลเขารูปช้าง   อําเภอเมืองสงขลา จังหวัดสงขลา 90000",
            "latitude": 7.162776,
            "longitude": 100.6071234
        },
        {
            "id": 193,
            "name_store": "Big C Bangplee",
            "type": "UPC",
            "province": "สมุทรปราการ",
            "address": "ยูนิต 118 ชั้น 1 89 หมู่ 9 ถนนเทพารักษ์ กม.13 ตำบลบางพลีใหญ่ อำเภอบางพลี สมุทรปราการ 10540",
            "latitude": 13.6151672,
            "longitude": 100.681061
        },
        {
            "id": 194,
            "name_store": "Central  Chaengwattana G Floor",
            "type": "UPC",
            "province": "นนทบุรี",
            "address": "เลขที่ 99,99\/9 หมู่ 2 เซ็นทรัล แจ้งวัฒนะ ชั้น จี             ห้องเลขที่ จี 19  ถนนแจ้งวัฒนะ ตำบลบางตลาด       อำเภอปากเกร็ด จังหวัดนนทบุรี  11120",
            "latitude": 13.9038463,
            "longitude": 100.5281431
        },
        {
            "id": 195,
            "name_store": "Tesco Pakchong (Khao Yai) ",
            "type": "UPC",
            "province": "นครราชสีมา",
            "address": "เลขที่ 289 หมู่ 18 ห้องเลขที่ 066 พีจี 535 ชั้น 1          ตำบลปากช่อง อำเภอปากช่อง จังหวัดนครราชสีมา 30130",
            "latitude": 14.7041012,
            "longitude": 101.4186112
        },
        {
            "id": 196,
            "name_store": "North Pattaya (Sai2)",
            "type": "UPC",
            "province": "ชลบุรี",
            "address": "เลขที่ 463\/95 หมู่ที่ 9 พัทยาเหนือ (สาย2) ตำบลหนองปรือ อำเภอบางละมุง จ.ชลบุรี 20150",
            "latitude": 12.9464396,
            "longitude": 100.8854794
        },
        {
            "id": 197,
            "name_store": "Central Plaza Korat G Floor",
            "type": "UPC",
            "province": "นครราชสีมา",
            "address": "เลขที่ 990,998 เซ็นทรัล พลาซ่า ชั้น จี ยูนิต จี11          ถนนมิตรภาพ-หนองคาย ตำบลในเมือง                          อำเภอเมืองนครราชสีมา จังฆวัดนครราชสีมา 30000",
            "latitude": 14.9904881,
            "longitude": 102.110111
        },
        {
            "id": 198,
            "name_store": "Central Plaza Mahachai ",
            "type": "UPC",
            "province": "สมุทรสาคร",
            "address": "เลขที่ 98 หมู่ที่ 4 เซ็นทรัล พลาซ่า มหาชัย ห้องเลขที่ 256-257 ชั้น 2 ตำบลนาดี อำเภอเมืองสมุทรสาคร จังหวัดสมุทรสาคร 74000",
            "latitude": 13.6403123,
            "longitude": 100.2733354
        },
        {
            "id": 199,
            "name_store": "Maya Chiangmai(2nd FL)",
            "type": "UPC",
            "province": "เชียงใหม่",
            "address": "เลขที่ 55,55\/5 ยูนิต 208 ชั้น 2 ศูนย์การค้าเมญ่า เชียงใหม่ หมู่ที่ 5 ตำบลข้างเผือก อำเภอเมือง จังหวัดเชียงใหม่ 50300",
            "latitude": 18.7885967,
            "longitude": 98.9974012
        },
        {
            "id": 200,
            "name_store": "Jungceylon G Floor",
            "type": "UPC",
            "province": "ภูเก็ต",
            "address": "บ้านเลขที่ 177 จังซีลอน ภูเก็ต ห้องเลขที่ ยูนิต 4113 ชั้นจี  ถนนราษฎร์อุทิศ 200 ปี ตำบลป่าตอง อำเภอกะทู้  จังหวัดภูเก็ต 83150",
            "latitude": 7.892195099999999,
            "longitude": 98.29934779999999
        },
        {
            "id": 201,
            "name_store": "Central World 4th Floor ",
            "type": "BKK",
            "province": "กรุงเทพฯ",
            "address": "เลขที่ 4,4\/1,4\/2, 4\/4  เซ็นทรัลเวิลด์ ชั้น4 ยูนิต เอ 421 ศูนย์การค้าเซ็นทรัลเวิล์ดพลาซ่า ถนนราชดำริ แขวงปทุมวัน เขตปทุมวัน กรุงเทพฯ 10330",
            "latitude": 13.747128,
            "longitude": 100.5393569
        },
        {
            "id": 202,
            "name_store": "Central Festival Samui 1st floor ",
            "type": "UPC",
            "province": "จังหวัดสุราษฎร์ธานี",
            "address": "เลขที่ 209, 209\/1, 209\/2  ยูนิต 110 ชั้น1 ศูนย์การค้าเซ็นทรัล เฟสติวัล สมุย หมู่ที่ 2 ตำบลบ่อผุด อำเภอเกาะสมุย จังหวัดสุราษฎร์ธานี 84320",
            "latitude": 9.5322247,
            "longitude": 100.060913
        },
        {
            "id": 203,
            "name_store": "Yaowaraj Road  ",
            "type": "BKK",
            "province": "กรุงเทพฯ",
            "address": "เลขที่ 435 ถนนเยาวราช แขวงสัมพันธวงศ์ เขตสัมพันธวงศ์ กรุงเทพมหานคร 10100",
            "latitude": 13.7404098,
            "longitude": 100.5102613
        },
        {
            "id": 204,
            "name_store": "Central Phuket Floresta G Floor  ",
            "type": "UPC",
            "province": "ภูเก็ต",
            "address": "เลขที่ 199  ยูนิต จี04\/2, จี04\/3 ชั้นจี ศูนย์การค้าเซ็นทรัล ภูเก็ตฟลอเรสต้า  หมู่ที่ 4 ตำบลวิชิต อำเภอเมืองภูเก็ต จังหวัดภูเก็ต 83000",
            "latitude": 7.8895826,
            "longitude": 98.36625169999999
        },
        {
            "id": 205,
            "name_store": "Central Phuket Floresta 3rd Floor  ",
            "type": "UPC",
            "province": "ภูเก็ต",
            "address": "เลขที่ 199 ยูนิต 321\/3 ชั้น3 ศูนย์การค้าเซ็นทรัล ภูเก็ตฟลอเรสต้า  หมู่ ที่ 4 ตำบลวิชิต อำเภอเมืองภูเก็ต จังหวัดภูเก็ต 83000",
            "latitude": 7.8895826,
            "longitude": 98.36625169999999
        },
        {
            "id": 206,
            "name_store": "Bali hai Pattaya",
            "type": "UPC",
            "province": "ชลบุรี",
            "address": "เลขที่ 559  หมู่ที่ 10 ถนนพระตำหนัก  ตำบลหนองปรือ อำเภอบางละมุง จังหวัดชลบุรี  20260",
            "latitude": 12.9188967,
            "longitude": 100.868522
        },
        {
            "id": 207,
            "name_store": "Terminal 21 Pattaya  ",
            "type": "UPC",
            "province": "ชลบุรี",
            "address": "เลขที่ 777 หมู่ที่ 6 ยูนิต SH1008, 1009 ชั้น 1 ศูนย์การค้าเทอมินอล 21 พัทยา เลขที่ ตำบลนาเกลือ อำเภอบางละมุง จ.ชลบุรี 20150",
            "latitude": 12.9500186,
            "longitude": 100.8897062
        },
        {
            "id": 208,
            "name_store": "Central Phuket Festival 4th Floor ",
            "type": "UPC",
            "province": "ภูเก็ต",
            "address": "เลขที่ 74,75 หมู่ 5 ยูนิต 414-NEW ชั้น 4 ศูนย์การค้าเซ็นทรัลภูเก็ต เฟสติวัล ถนนวิชิต ตำบลวิชิต อำเภอเมืองภูเก็ต จังหวัดภูเก็ต 83000",
            "latitude": 7.8635433,
            "longitude": 98.3780074
        },
        {
            "id": 209,
            "name_store": "Central Festival Chiangmai 4th Floor  ",
            "type": "UPC",
            "province": "เชียงใหม่",
            "address": "เลขที่ 99,99\/1,99\/2 หมู่ 4 ยูนิต 435 ชั้น 4 ศูนย์การค้าเซ็นทรัล เฟสติวัล เชียงใหม่ ถนนซุปเปอร์ไฮเวย์ ตำบลฟ้าฮ่าม อำเภอเมืองเชียงใหม่ จังหวัดเชียงใหม่ 50000",
            "latitude": 18.769021,
            "longitude": 98.97447600000001
        },
        {
            "id": 210,
            "name_store": "Whizdom 101",
            "type": "BKK",
            "province": "กรุงเทพฯ",
            "address": "เลขที่ 101 ยูนิต121 ชั้น 1 โครงการ 101 The Third Place ถนนสุขุมวิท แขวงบางจาก เขตพระโขนง กรุงเทพมหานคร 10260",
            "latitude": 13.6861524,
            "longitude": 100.6115732
        },
        {
            "id": 211,
            "name_store": "Seacon Square G Floor  ",
            "type": "BKK",
            "province": "กรุงเทพฯ",
            "address": "เลขที่ 55 ยุนิต 1104 ชั้นจี ศูนย์การค้าซีคอนสแควร์    ถนนศรีนครินทร์ แขวงหนองบอน เขตประเวศ กรุงเทพมหานคร 10250",
            "latitude": 13.6943348,
            "longitude": 100.6483001
        },
        {
            "id": 212,
            "name_store": "Nimman Road  ",
            "type": "UPC",
            "province": "เชียงใหม่",
            "address": "เลขที่ 6\/1-2 ถนนนิมมานเหมินทร์ ตำบลสุเทพ อำเภอเมืองเชียงใหม่ จังหวัดเชียงใหม่ 50200",
            "latitude": 18.8002992,
            "longitude": 98.9673972
        },
        {
            "id": 213,
            "name_store": "Central Patong",
            "type": "UPC",
            "province": "ภูเก็ต",
            "address": "เลขที่ 198\/9 ยูนิต SIS-08A ชั้น B1  ศูนย์การค้าเซ็นทรัลป่าตอง  ถนนราษฎร์อุทิศ 200 ปี ตำบลป่าตอง อำเภอกะทู้ จังหวัดภูเก็ต 83150",
            "latitude": 7.8928334,
            "longitude": 98.2977549
        },
        {
            "id": 214,
            "name_store": "King Power Srivaree (Consignment store)",
            "type": "UPC",
            "province": "สมุทรปราการ",
            "address": "เลขที่ 888 หมู่ 10 ตำบลบางโฉลง อำเภอบางพลี จังหวัดสมุทรปราการ 10540",
            "latitude": 13.6375875,
            "longitude": 100.7560292
        },
        {
            "id": 215,
            "name_store": "Grand 5 Sukhumvit  ",
            "type": "BKK",
            "province": "กรุงเทพฯ",
            "address": "เลขที่ 87 อาคารแกรนด์ 5 เซ็นเตอร์  ห้องเลขที่  A4, A5 ชั้นจี  ซอยสุขุมวิท 5 ถนนสุขุมวิท แขวงคลองเตยเหนือ เขตวัฒนา กรุงเทพมหานคร 10110",
            "latitude": 13.7437719,
            "longitude": 100.5526636
        },
        {
            "id": 216,
            "name_store": "King Power Rangnam (Consignment store)  ",
            "type": "BKK",
            "province": "กรุงเทพฯ",
            "address": "โซน 315: THAI COSMETIC & PHARMACY ชั้น 3 อาคารคิง เพาเวอร์ รางน้ำ เลขที่ 8\/1 ถนนรางน้ำ แขวงพญาไท เขตราชเทวี กรุงเทพมหานคร 10400",
            "latitude": 13.7602263,
            "longitude": 100.5382186
        },
        {
            "id": 217,
            "name_store": "King Power Phuket (Consignment store)  ",
            "type": "UPC",
            "province": "ภูเก็ต",
            "address": "คิง เพาเวอร์ ภูเก็ต เลขที่ 88\/88-89 หมู่ 2 ถนนเจ้าฟ้าตะวันตก ตำบลวิชิต อำเภอเมืองภูเก็ต จังหวัดภูเก็ต 83000    ",
            "latitude": 7.873578299999999,
            "longitude": 98.3618822
        },
        {
            "id": 218,
            "name_store": "King Power Pattaya (Consignment store)  ",
            "type": "UPC",
            "province": "ชลบุรี",
            "address": "คิง เพาเวอร์ พัทยา ชั้น 1 โซน THAI PRODUCTS เลขที่ 8 หมู่ 9 ถนนสุขุมวิท เมืองพัทยา อำเภอบางละมุง จังหวัดชลบุรี ",
            "latitude": 12.7820176,
            "longitude": 101.6472306
        },
        {
            "id": 219,
            "name_store": "Tesco Lotus Amata  ",
            "type": "UPC",
            "province": "ชลบุรี",
            "address": "เลขที่ 700\/75 หมู่ที่ 5 ห้องเลขที่ P15PG010\/083PG010 ชั้น 1  ตำบลคลองตำหรุ อำเภอเมืองชลบุรี จังหวัดชลบุรี 20000",
            "latitude": 13.4502982,
            "longitude": 100.998355
        },
        {
            "id": 220,
            "name_store": "Wat Phra Singh Chiangmai  ",
            "type": "UPC",
            "province": "เชียงใหม่",
            "address": "เลขที่ 102 ถนนราชดำเนิน ตำบลศรีภูมิ อำเภอเมืองเชียงใหม่ จังหวัดเชียงใหม่ 50200",
            "latitude": 18.7886543,
            "longitude": 98.98300449999999
        },
        {
            "id": 221,
            "name_store": "Central Pattaya Beach G Floor  \n",
            "type": "UPC",
            "province": "ชลบุรี",
            "address": "เลขที่ 333\/99 หมู่ที่ 9 ห้องเลขที่ G41 ชั้น G ศูนย์การค้าเซ็นทรัลเฟสติวัล พัทยา บีช ถนนพัทยาสายสอง ตำบลหนองปรือ อำเภอบางละมุง จ.ชลบุรี 20260",
            "latitude": 12.9340776,
            "longitude": 100.8841869
        },
        {
            "id": 222,
            "name_store": "Samyan Mitrtown  \n",
            "type": "BKK",
            "province": "กรุงเทพฯ",
            "address": "เลขที่ 944\/1  ห้องเลขที่ 1U013-1U014 ชั้น 1  อาคารศูนย์การค้าสามย่านมิตรทาวน์ ถนนพระราม 4    แขวงวังใหม่ เขตปทุมวัน กรุงเทพมหานคร 10330",
            "latitude": 13.7336159,
            "longitude": 100.5285119
        },
        {
            "id": 223,
            "name_store": "Robinson Trang",
            "type": "UPC",
            "province": "ตรัง",
            "address": "เลขที่ 138 ห้องเลขที่ RTR 1F - RR 124 ชั้น 1F            อาคารโรบินสันตรัง  ถนนพัทลุง ตำบลทับเที่ยง อำเภอเมืองตรัง จังหวัดตรัง 92000",
            "latitude": 7.563727800000001,
            "longitude": 99.62637439999999
        },
        {
            "id": 224,
            "name_store": "Central Village  ",
            "type": "UPC",
            "province": "สมุทรปราการ",
            "address": "เลขที่ 98, 98\/1 หมู่ที่ 5 ห้องเลขที่ D101 ชั้น 1 ศูนย์การค้าเซ็นทรัลวิลเลจ ตำบลบางโฉลง อำเภอบางพลี จังหวัดสมุทรปราการ 10540",
            "latitude": 13.6385461,
            "longitude": 100.7444998
        },
        {
            "id": 225,
            "name_store": "Robinson Kanchanaburi",
            "type": "UPC",
            "province": "กาญจนบุรี",
            "address": "\nเลขที่ 110 หมู่ที่ 9 ห้องเลขที่ 138 ชั้น 1F ศูนย์การค้าโรบินสัน กาญจนบุรี   ตําบลปากแพรก อําเภอเมืองกาญจนบุรี จังหวัดกาญจนบุรี  71000   ",
            "latitude": 13.9857734,
            "longitude": 99.43393429999999
        },
        {
            "id": 226,
            "name_store": "Tesco Lotus Salaya (New Open 1 Mar 2020)",
            "type": "UPC",
            "province": "นครปฐม",
            "address": "เลขที่ P22PG010\/069PG010 ชั้น 1 เทสโก้ โลตัส ศาลายา เลขที่ 99\/14 หมู่ที่ 1 ตำบลบางเตย อำเภอสามพราน จังหวัดนครปฐม 73210",
            "latitude": 13.7887845,
            "longitude": 100.3082531
        },
        {
            "id": 227,
            "name_store": "Sukhumvit Soi 17",
            "type": "BKK",
            "province": "กรุงเทพฯ",
            "address": "เลขที่ 195 ห้องเลขที่ G8,G9 ชั้น 1 ถนนสุขุมวิท แขวงคลองเตยเหนือ เขตวัฒนา กรุงเทพมหานคร 10110",
            "latitude": 13.7436313,
            "longitude": 100.5508275
        },
        {
            "id": 228,
            "name_store": "Tesco Lotus North Pattaya",
            "type": "UPC",
            "province": "ชลบุรี",
            "address": "เลขที่ 221\/19 หมู่ที่ 5 ห้องเลขที่ 033PG007 ชั้น 1  ตำบลนาเกลือ อำเภอบางละมุง จังหวัดชลบุรี 20150",
            "latitude": 12.9250207,
            "longitude": 100.8955797
        },
        {
            "id": 229,
            "name_store": "The Mall Ngamwongwan",
            "type": "UPC",
            "province": "นนทบุรี",
            "address": " เลขที่ 408,410,412,414,416,418,420,422,424,426,428,430, 430\/1 ห้องเลขที่ จี11 ชั้น จี  ศูนย์การค้าเดอะมอลล์ งามวงศ์วาน ถนนงามวงศ์วาน ตำบลบางเขน อำเภอเมืองนนทบุรี จังหวัดนนทบุรี 11000",
            "latitude": 13.855231,
            "longitude": 100.5425872
        },
        {
            "id": 230,
            "name_store": "Siam Discovery Relocate 4277",
            "type": "BKK",
            "province": "กรุงเทพฯ",
            "address": "เลขที่ 989 สยามดิสคัฟเวอรี่ ห้องเลขที่ 301 ชั้น 3  ถนนพระราม 1 แขวงปทุมวัน เขตปทุมวัน กทม 10330",
            "latitude": 13.7453918,
            "longitude": 100.5326948
        },
        {
            "id": 231,
            "name_store": "Bluport Hua Hin (B Floor) Relocate",
            "type": "UPC",
            "province": "ประจวบคีรีขันธ์",
            "address": "เลขที่ 8\/89 ยูนิต B22\/1-2 ชั้น บี ศูนย์การค้าบลูพอร์ต หัวหิน รีสอร์ท มอลล์ ซอยหมู่บ้านหนองแก ตำบลหนองแก อำเภอหัวหิน จังหวัดประจวบคีรีขันธ์ 77110",
            "latitude": 12.547795,
            "longitude": 99.962402
        },
        {
            "id": 232,
            "name_store": "Market Place Wongsawang",
            "type": "BKK",
            "province": "กรุงเทพฯ",
            "address": "888ห้องเลขที่RB110-111 ชั้น1 โครงการมาร์เก็ต เพลส  วงศ์สว่าง ถนนวงศ์สว่าง แขวงวงศ์สว่าง เขตบางซื่อ กทม 10800",
            "latitude": 13.8270245,
            "longitude": 100.5279363
        },
        {
            "id": 233,
            "name_store": "Wat Phra Singh Chiangmai  ",
            "type": "UPC",
            "province": "เชียงใหม่",
            "address": "เลขที่ 102 ถนนราชดำเนิน ตำบลศรีภูมิ อำเภอเมืองเชียงใหม่ จังหวัดเชียงใหม่ 50200",
            "latitude": 18.7886543,
            "longitude": 98.98300449999999
        },
        {
            "id": 234,
            "name_store": "Suvarnabhumi Airport 2.04 - Domestic Airside",
            "type": "UPC",
            "province": "สมุทรปราการ",
            "address": "เลขที่ 999 หมู่ที่ 1 ท่าอากาศยานสุวรรณภูมิ 2.03 ตําบลหนองปรือ อําเภอบางพลี จังหวัดสมุทรปราการ 10540 เอส ดี 2 โดเมสติกโซน ชั้น 2",
            "latitude": 13.6899991,
            "longitude": 100.7501124
        },
        {
            "id": 235,
            "name_store": "Suvarnabhumi Airport 3.28 - Landside Mazzanine",
            "type": "UPC",
            "province": "สมุทรปราการ",
            "address": "เลขที่ 999 หมู่ที่ 1 ท่าอากาศยานสุวรรณภูมิ 3.01 ตำบลหนองปรือ อำเภอบางพลี สมุทรปราการ 10540 ที แอล 1 แลนด์ไซด์โซน ชั้น 3",
            "latitude": 13.6899991,
            "longitude": 100.7501124
        },
        {
            "id": 236,
            "name_store": "Suvarnabhumi Airport 4.13 - Int'l Airside East",
            "type": "UPC",
            "province": "สมุทรปราการ",
            "address": "เลขที่ 999 หมู่ที่ 1 ท่าอากาศยานสุวรรณภูมิ 4.10-4.11 ตำบลหนองปรือ อำเภอบางพลี สมุทรปราการ 10540 ที อี 7 แอร์ไซด์-โซนตะวันออก ชั้น 4",
            "latitude": 13.6899991,
            "longitude": 100.7501124
        },
        {
            "id": 237,
            "name_store": "Suvarnabhumi Airport 4.122 - Int'l Landside Depar ",
            "type": "UPC",
            "province": "สมุทรปราการ",
            "address": "เลขที่ 999 หมู่ที่ 1 ท่าอากาศยานสุวรรณภูมิ 4.07 ตำบลหนองปรือ อำเภอบางพลี สมุทรปราการ 10540 แอล เอส 4 อินเตอร์เนชั่นนัล แลนด์ไซด์โซน ชั้น 4",
            "latitude": 13.6899991,
            "longitude": 100.7501124
        },
        {
            "id": 238,
            "name_store": "Suvarnabhumi Airport 4.55 - Int'l Airside West",
            "type": "UPC",
            "province": "สมุทรปราการ",
            "address": "เลขที่ 999 หมู่ที่ 1 ท่าอากาศยานสุวรรณภูมิ 4.09 ตำบลหนองปรือ อำเภอบางพลี สมุทรปราการ 10540 ที ดับบิว 8 แอร์ไซด์-บูติกโซน ชั้น 4",
            "latitude": 13.6899991,
            "longitude": 100.7501124
        },
        {
            "id": 239,
            "name_store": "Airport Donmueang",
            "type": "BKK",
            "province": "กรุงเทพฯ",
            "address": "เลขที่ 222 ชั้น 3 ฝั่ง International ถนนวิภาวดีรังสิต แขวงสนามบิน เขตดอนเมือง กรุงเทพฯ 10210",
            "latitude": 13.9217913,
            "longitude": 100.6023752
        },
        {
            "id": 240,
            "name_store": "Airport Donmueang 2 (Domestic)",
            "type": "BKK",
            "province": "กรุงเทพฯ",
            "address": "เลขที่ 222 ชั้น3 ฝั่งpier3 อาคาร2ผู้โดยสารภายในประเทศ ท่าอากาศยานดอนเมือง ถนนวิภาวดีรังสิต แขวงสนามบิน เขตดอนเมือง กทม. 10210",
            "latitude": 13.9132602,
            "longitude": 100.6041987
        },
        {
            "id": 241,
            "name_store": "Airport Donmueang 3",
            "type": "BKK",
            "province": "กรุงเทพฯ",
            "address": "เลขที่ 222 ชั้น3 อาคาร2ผู้โดยสารภายในประเทศ ท่าอากาศยานดอนเมือง  ถนนวิภาวดีรังสิต แขวงสนามบิน เขตดอนเมือง กทม 10210",
            "latitude": 13.9132602,
            "longitude": 100.6041987
        },
        {
            "id": 242,
            "name_store": "Phuket Airport (Airside 4th Floor) ",
            "type": "UPC",
            "province": "ภูเก็ต",
            "address": "เลขที่ 222 หมู่ที่ 6 ยูนิต 406 ชั้น4 อาคารผู้โดยสารระหว่างประเทศ    ท่าอากาศยานภูเก็ต ต.ไม้ขาว  อ.ถลาง  จ.ภูเก็ต  83110",
            "latitude": 8.1110951,
            "longitude": 98.3064646
        }
    ]
}